~Version ---------------------------------------------------
VERS.   1.2 : CWLS LOG ASCII STANDARD - VERSION 1.2
WRAP.    NO : One line per depth step
DLM . SPACE : Column Data Section Delimiter
~Well ------------------------------------------------------
STRT.ft      5651.333 : START DEPTH
STOP.ft      5849.667 : STOP DEPTH
STEP.ft             1 : STEP
NULL.        -9999.25 : NULL VALUE
COMP.         COMPANY : 
WELL.            WELL : 
FLD .           FIELD : 
LOC .        LOCATION : 
PROV.        PROVINCE : 
CNTY.          COUNTY : 
STAT.           STATE : 
CTRY.         COUNTRY : 
SRVC. SERVICE COMPANY : 
DATE.            DATE : 2020-08-25 21:44:26.661423
UWI .  UNIQUE WELL ID : 
API .      API NUMBER : 
~Curve Information -----------------------------------------
Depth (ft).ft      : Depth in ft
%Na       .wt_pct  : XRF Sodium
%Mg       .wt_pct  : XRF Magnesium
%Al       .wt_pct  : XRF Aluminum
%Si       .wt_pct  : XRF Silicon
%P        .wt_pct  : XRF Phosphorus
%S        .wt_pct  : XRF Sulfur
%K        .wt_pct  : XRF Potassium
%Ca       .wt_pct  : XRF Calcium
%Ti       .wt_pct  : XRF Titanium
%Mn       .wt_pct  : XRF Manganese
%Fe       .wt_pct  : XRF Iron
V         .ppm     : XRF Vanadium
Cr        .ppm     : XRF Chromium
Co        .ppm     : XRF Cobalt
Ni        .ppm     : XRF Nickel
Cu        .ppm     : XRF Copper
Zn        .ppm     : XRF Zinc
Ga        .ppm     : XRF Gallium
As        .ppm     : XRF Arsenic
Pb        .ppm     : XRF Lead
Th        .ppm     : XRF Thorium
Rb        .ppm     : XRF Ribidium
U         .ppm     : XRF Uranium
Sr        .ppm     : XRF Strontium
Y         .ppm     : XRF Yttrium
Zr        .ppm     : XRF Zirconium
Nb        .ppm     : XRF Niobium
Mo        .ppm     : XRF Molybdenum
Quartz    .wt_pct  : XRD Quartz
Dolomite  .wt_pct  : XRD Dolomite
Illite    .wt_pct  : XRD Illite
Calcite   .wt_pct  : XRD Calcite
Gypsum    .wt_pct  : XRD Gypsum
Microcline.wt_pct  : XRD Microcline
Albite    .wt_pct  : XRD Albite
Pyrite    .wt_pct  : XRD Pyrite
Kaolinite .wt_pct  : XRD Kaolinite
~Params ----------------------------------------------------
~Other -----------------------------------------------------
~ASCII -----------------------------------------------------
# ...
 5819.33300    0.34900    2.27370    3.73390   11.60870    0.24520    1.03970    1.75900   21.23880    0.17590    0.01450    1.80070   39.00000   66.00000    6.00000   40.00000   16.00000   56.00000    9.00000    5.00000    9.00000    6.00000   70.00000    7.00000  279.00000   24.00000   76.00000    6.00000    5.00000   -9999.25   -9999.25   -9999.25   -9999.25   -9999.25   -9999.25   -9999.25   -9999.25   -9999.25
 5819.66700    0.16420    0.33880    0.63160    3.52850    0.01400    0.54370    0.49700   33.20390    0.04180    0.01390    0.90760   36.00000   25.00000    8.00000   17.00000   16.00000   17.00000    4.00000    3.00000    6.00000    3.00000   23.00000    0.00000  257.00000   19.00000   29.00000    1.00000    2.00000   -9999.25   -9999.25   -9999.25   -9999.25   -9999.25   -9999.25   -9999.25   -9999.25   -9999.25
 5820.00000    0.29040    2.33240    3.56950   11.28000    0.23570    1.22680    1.64820   21.55180    0.17330    0.01450    1.71380   40.00000   68.00000    5.00000   44.00000   17.00000   51.00000    9.00000    1.00000    9.00000    6.00000   66.00000    0.00000  284.00000   28.00000   71.00000    6.00000    2.00000    6.40000    9.00000    4.40000   52.60000    8.10000    5.20000    4.10000    7.50000    2.70000
 5820.33300    0.38210    1.94910    3.79980   11.64620    0.22220    0.91880    1.79770   19.83400    0.19130    0.01480    1.95140   22.00000   81.00000    5.00000   49.00000   19.00000   61.00000   10.00000    0.00000    7.00000    7.00000   79.00000    3.00000  284.00000   25.00000   84.00000    6.00000    5.00000   -9999.25   -9999.25   -9999.25   -9999.25   -9999.25   -9999.25   -9999.25   -9999.25   -9999.25
 5820.66700    0.22770    0.89920    1.95680    7.66310    0.18810    0.98170    1.10770   29.18250    0.10470    0.01430    1.22850   48.00000   49.00000    4.00000   35.00000   16.00000   39.00000    6.00000    6.00000    8.00000    4.00000   41.00000   12.00000  272.00000   25.00000   54.00000    4.00000    2.00000   -9999.25   -9999.25   -9999.25   -9999.25   -9999.25   -9999.25   -9999.25   -9999.25   -9999.25
 5821.00000    0.34920    0.00000    1.29400    6.01040    0.04440    0.63630    0.99820   25.87790    0.08490    0.01390    1.20290   33.00000   37.00000    5.00000   26.00000   17.00000   57.00000    5.00000    5.00000    9.00000    4.00000   40.00000    3.00000  258.00000   18.00000   43.00000    4.00000    0.00000   -9999.25   -9999.25   -9999.25   -9999.25   -9999.25   -9999.25   -9999.25   -9999.25   -9999.25
 5821.33300    0.33210    1.45360    3.04920   10.04880    0.23280    1.01410    1.50260   24.56740    0.15770    0.01510    1.52940   50.00000   55.00000    7.00000   42.00000   20.00000   60.00000    8.00000    6.00000    9.00000    6.00000   62.00000    0.00000  270.00000   29.00000   68.00000    5.00000    0.00000    5.50000    8.90000    4.60000   55.10000    7.50000    4.30000    4.30000    5.60000    4.20000
 5821.66700    0.26450    1.62920    2.85350    9.62510    0.24030    1.24850    1.45860   24.44660    0.14050    0.01470    1.48870   49.00000   47.00000    7.00000   32.00000   20.00000   54.00000    8.00000    4.00000    9.00000    5.00000   47.00000    0.00000  284.00000   25.00000   56.00000    4.00000    1.00000   -9999.25   -9999.25   -9999.25   -9999.25   -9999.25   -9999.25   -9999.25   -9999.25   -9999.25
 5822.00000    0.32040    1.54350    3.75940   11.32870    0.38550    1.74210    1.92340   21.91750    0.18720    0.01490    1.95290   22.00000   60.00000    6.00000   46.00000   21.00000   61.00000    7.00000    6.00000    9.00000    6.00000   67.00000    2.00000  307.00000   26.00000   71.00000    4.00000    8.00000   -9999.25   -9999.25   -9999.25   -9999.25   -9999.25   -9999.25   -9999.25   -9999.25   -9999.25
 5822.33300    0.27720    1.25760    3.77050   11.56720    0.31770    1.31340    1.94220   21.35110    0.20860    0.01500    2.02280   30.00000   61.00000    8.00000   56.00000   23.00000   55.00000    9.00000    5.00000    9.00000    6.00000   65.00000    6.00000  309.00000   28.00000   70.00000    7.00000    6.00000   -9999.25   -9999.25   -9999.25   -9999.25   -9999.25   -9999.25   -9999.25   -9999.25   -9999.25
 5822.66700    0.22680    0.94950    3.27460   11.62630    0.28730    1.16190    1.54880   23.00350    0.14870    0.01510    1.53110   55.00000   70.00000    3.00000   43.00000   19.00000   73.00000    8.00000    8.00000   11.00000    6.00000   67.00000    0.00000  286.00000   30.00000   70.00000    6.00000    4.00000    7.20000    9.00000    5.40000   52.50000    8.00000    4.10000    3.20000    7.00000    3.60000
 5823.00000    0.32470    1.07520    3.43430   12.45260    0.25790    1.43770    1.69300   20.74360    0.16200    0.01560    1.57960   53.00000   83.00000    5.00000   38.00000   17.00000   77.00000    9.00000    6.00000   10.00000    6.00000   70.00000    7.00000  286.00000   27.00000   78.00000    6.00000    2.00000   -9999.25   -9999.25   -9999.25   -9999.25   -9999.25   -9999.25   -9999.25   -9999.25   -9999.25
 5824.33300    0.25990    0.86130    3.13810   10.73350    0.24300    0.95940    1.48480   23.70810    0.14570    0.01500    1.36680   53.00000   63.00000    7.00000   42.00000   16.00000   28.00000    6.00000    6.00000   10.00000    6.00000   62.00000    9.00000  287.00000   26.00000   65.00000    4.00000    0.00000   -9999.25   -9999.25   -9999.25   -9999.25   -9999.25   -9999.25   -9999.25   -9999.25   -9999.25
 5824.66700    0.33360    1.67410    3.49770   11.88600    0.30870    1.15780    1.65120   22.50310    0.16200    0.01540    1.63410   48.00000   81.00000    3.00000   44.00000   14.00000   46.00000    8.00000    7.00000   10.00000    6.00000   71.00000    1.00000  262.00000   25.00000   70.00000    4.00000    6.00000   -9999.25   -9999.25   -9999.25   -9999.25   -9999.25   -9999.25   -9999.25   -9999.25   -9999.25
 5825.00000    0.30000    0.93770    2.70620   10.21310    0.21300    0.90010    1.47540   21.67890    0.13710    0.01550    1.38120   50.00000   64.00000    6.00000   45.00000   18.00000   38.00000   10.00000    3.00000   10.00000    5.00000   62.00000   15.00000  285.00000   28.00000   67.00000    4.00000    7.00000   -9999.25   -9999.25   -9999.25   -9999.25   -9999.25   -9999.25   -9999.25   -9999.25   -9999.25
 5825.33300    0.33260    1.25490    3.67610   12.17410    0.34610    1.04730    1.78770   21.97460    0.16920    0.01550    1.59740   44.00000   72.00000    6.00000   53.00000   24.00000   51.00000    8.00000    5.00000    9.00000    7.00000   76.00000    9.00000  296.00000   27.00000   74.00000    6.00000    2.00000   -9999.25   -9999.25   -9999.25   -9999.25   -9999.25   -9999.25   -9999.25   -9999.25   -9999.25
 5825.66700    0.32990    1.06260    3.24060   12.12780    0.31900    1.07090    1.62670   22.28550    0.16220    0.01540    1.45290   53.00000   71.00000    6.00000   48.00000   20.00000   45.00000    8.00000    4.00000    9.00000    7.00000   73.00000    0.00000  265.00000   27.00000   74.00000    5.00000    3.00000    9.10000    9.60000    6.70000   48.30000    7.10000    6.60000    4.20000    5.90000    2.40000
 5826.00000    0.33520    1.29970    3.69220   13.13250    0.34410    1.49050    1.92460   20.47940    0.18350    0.01580    1.51370   49.00000   82.00000    6.00000   59.00000   21.00000   48.00000   10.00000    4.00000   10.00000    7.00000   79.00000    0.00000  280.00000   33.00000   81.00000    5.00000    4.00000   -9999.25   -9999.25   -9999.25   -9999.25   -9999.25   -9999.25   -9999.25   -9999.25   -9999.25
 5826.33300    0.29070    1.10570    3.46190   13.13470    0.39400    1.35880    1.78950   21.55610    0.16480    0.01570    1.42370   58.00000   74.00000    5.00000   48.00000   23.00000  117.00000   10.00000    4.00000   10.00000    6.00000   66.00000    8.00000  296.00000   28.00000   78.00000    4.00000   12.00000   -9999.25   -9999.25   -9999.25   -9999.25   -9999.25   -9999.25   -9999.25   -9999.25   -9999.25
 5826.66700    0.40230    0.00000    3.08930   15.68980    0.55930    1.21100    1.46010   17.27950    0.16570    0.01630    1.53280   42.00000   72.00000    6.00000   41.00000   19.00000   92.00000    9.00000    4.00000    8.00000    5.00000   58.00000    0.00000  291.00000   45.00000  132.00000    7.00000    5.00000   -9999.25   -9999.25   -9999.25   -9999.25   -9999.25   -9999.25   -9999.25   -9999.25   -9999.25
