~Version ---------------------------------------------------
VERS.   1.2 : CWLS LOG ASCII STANDARD - VERSION 1.2
WRAP.    NO : One line per depth step
DLM . SPACE : Column Data Section Delimiter
~Well ------------------------------------------------------
STRT.ft      5651.333 : START DEPTH
STOP.ft      5849.667 : STOP DEPTH
STEP.ft             1 : STEP
NULL.        -9999.25 : NULL VALUE
COMP.         COMPANY : 
WELL.            WELL : 
FLD .           FIELD : 
LOC .        LOCATION : 
PROV.        PROVINCE : 
CNTY.          COUNTY : 
STAT.           STATE : 
CTRY.         COUNTRY : 
SRVC. SERVICE COMPANY : 
DATE.            DATE : 2020-08-25 21:44:26.661423
UWI .  UNIQUE WELL ID : 
API .      API NUMBER : 
~Curve Information -----------------------------------------
Depth (ft).ft      : Depth in ft
%Na       .wt_pct  : XRF Sodium
%Mg       .wt_pct  : XRF Magnesium
%Al       .wt_pct  : XRF Aluminum
%Si       .wt_pct  : XRF Silicon
%P        .wt_pct  : XRF Phosphorus
%S        .wt_pct  : XRF Sulfur
%K        .wt_pct  : XRF Potassium
%Ca       .wt_pct  : XRF Calcium
%Ti       .wt_pct  : XRF Titanium
%Mn       .wt_pct  : XRF Manganese
%Fe       .wt_pct  : XRF Iron
V         .ppm     : XRF Vanadium
Cr        .ppm     : XRF Chromium
Co        .ppm     : XRF Cobalt
Ni        .ppm     : XRF Nickel
Cu        .ppm     : XRF Copper
Zn        .ppm     : XRF Zinc
Ga        .ppm     : XRF Gallium
As        .ppm     : XRF Arsenic
Pb        .ppm     : XRF Lead
Th        .ppm     : XRF Thorium
Rb        .ppm     : XRF Ribidium
U         .ppm     : XRF Uranium
Sr        .ppm     : XRF Strontium
Y         .ppm     : XRF Yttrium
Zr        .ppm     : XRF Zirconium
Nb        .ppm     : XRF Niobium
Mo        .ppm     : XRF Molybdenum
Quartz    .wt_pct  : XRD Quartz
Dolomite  .wt_pct  : XRD Dolomite
Illite    .wt_pct  : XRD Illite
Calcite   .wt_pct  : XRD Calcite
Gypsum    .wt_pct  : XRD Gypsum
Microcline.wt_pct  : XRD Microcline
Albite    .wt_pct  : XRD Albite
Pyrite    .wt_pct  : XRD Pyrite
Kaolinite .wt_pct  : XRD Kaolinite
~Params ----------------------------------------------------
~Other -----------------------------------------------------
~ASCII -----------------------------------------------------
 5651.33300    0.15180    1.17870    1.63640    6.57590    0.64540    0.46630    0.58530   30.41330    0.07030    0.01490    0.84550   52.00000   43.00000   12.00000   75.00000   54.00000   69.00000   28.00000   11.00000   16.00000   12.00000   40.00000  123.00000 11783.00000    0.00000    0.00000   27.00000    0.00000   -9999.25   -9999.25   -9999.25   -9999.25   -9999.25   -9999.25   -9999.25   -9999.25   -9999.25
 5651.66700    0.17590    0.00000    0.33440    3.02690    0.01590    0.45790    0.21760   33.24620    0.02630    0.01310    0.92170   19.00000   15.00000    4.00000   18.00000   13.00000   17.00000    6.00000    8.00000    9.00000    3.00000   19.00000    9.00000  370.00000   11.00000   29.00000    2.00000    2.00000   -9999.25   -9999.25   -9999.25   -9999.25   -9999.25   -9999.25   -9999.25   -9999.25   -9999.25
 5652.00000    0.21050    0.10370    0.64950    4.32400    0.00000    0.43210    0.35790   30.69090    0.04740    0.01400    0.92130   41.00000   20.00000    6.00000   16.00000   12.00000    8.00000    5.00000    7.00000    9.00000    3.00000   25.00000    0.00000  237.00000   15.00000   53.00000    3.00000    0.00000    2.80000    6.90000    5.70000   60.70000    6.30000    4.10000    4.20000    6.10000    3.10000
 5652.33300    0.16030    0.74650    0.39810    3.07830    0.00000    0.69210    0.22290   35.61020    0.02180    0.01380    0.84800   43.00000   22.00000    5.00000   19.00000   16.00000    7.00000    4.00000    6.00000    9.00000    3.00000   14.00000    0.00000  313.00000   11.00000   25.00000    1.00000    1.00000   -9999.25   -9999.25   -9999.25   -9999.25   -9999.25   -9999.25   -9999.25   -9999.25   -9999.25
 5652.66700    0.12160    0.72410    0.24850    2.21600    0.00000    0.43220    0.12570   37.59250    0.01550    0.01360    0.75120   43.00000   10.00000    8.00000   14.00000   18.00000   13.00000    4.00000    6.00000    8.00000    2.00000   10.00000    6.00000  349.00000    7.00000    9.00000    1.00000    3.00000   -9999.25   -9999.25   -9999.25   -9999.25   -9999.25   -9999.25   -9999.25   -9999.25   -9999.25
 5653.00000    0.20220    0.00000    0.36890    2.65340    0.00000    0.34840    0.17990   35.21260    0.02300    0.01330    0.87210   45.00000   10.00000    8.00000   21.00000   13.00000    9.00000    5.00000    0.00000    8.00000    3.00000   13.00000    0.00000  258.00000   15.00000   24.00000    2.00000    0.00000   -9999.25   -9999.25   -9999.25   -9999.25   -9999.25   -9999.25   -9999.25   -9999.25   -9999.25
 5653.33300    0.19030    1.78580    0.17880    2.09770    0.01240    0.98270    0.10120   37.62660    0.01040    0.01310    1.12170   27.00000   13.00000    5.00000   20.00000   13.00000   10.00000    2.00000    2.00000    7.00000    3.00000   12.00000    0.00000  206.00000   11.00000   18.00000    0.00000    0.00000    1.30000    4.90000    4.70000   64.30000    5.90000    5.00000    3.40000    5.20000    5.40000
 5653.66700    0.18810    0.78320    0.51100    3.24460    0.00000    0.23850    0.22850   35.44830    0.02670    0.01380    0.80450   41.00000   18.00000    9.00000   31.00000   91.00000 2729.00000   11.00000    0.00000    9.00000    3.00000   20.00000    2.00000  230.00000   15.00000   28.00000    2.00000    0.00000   -9999.25   -9999.25   -9999.25   -9999.25   -9999.25   -9999.25   -9999.25   -9999.25   -9999.25
 5654.00000    0.21340    0.41050    0.00950    2.26290    0.00000    0.34420    0.09610   36.10610    0.01590    0.01420    0.82020   35.00000   12.00000    7.00000   19.00000   18.00000    9.00000    5.00000   11.00000   11.00000    3.00000   10.00000    4.00000  247.00000   11.00000   20.00000    1.00000    0.00000   -9999.25   -9999.25   -9999.25   -9999.25   -9999.25   -9999.25   -9999.25   -9999.25   -9999.25
 5654.33300    0.13170    1.04160    1.01100    3.72320    0.00000    1.02620    0.26090   34.90220    0.03640    0.01360    0.90240   30.00000   21.00000    3.00000   34.00000   21.00000    5.00000    3.00000   10.00000   11.00000    3.00000   22.00000   10.00000  198.00000   14.00000   43.00000    1.00000    4.00000   -9999.25   -9999.25   -9999.25   -9999.25   -9999.25   -9999.25   -9999.25   -9999.25   -9999.25
 5654.66700    0.24070    0.40420    0.20940    2.45070    0.00000    0.23520    0.12580   34.53350    0.01880    0.01360    0.88340   44.00000    7.00000    5.00000   19.00000   13.00000    4.00000    5.00000    4.00000    8.00000    3.00000   14.00000    0.00000  171.00000   17.00000   20.00000    0.00000    1.00000    1.60000    4.90000    6.60000   64.30000    6.60000    4.40000    3.90000    3.30000    4.40000
 5655.00000    0.19200    0.76420    0.22240    2.64190    0.00000    0.28230    0.12620   36.44310    0.01630    0.01350    0.84450   36.00000   16.00000    6.00000   21.00000   12.00000    8.00000    4.00000    3.00000    7.00000    3.00000   14.00000    0.00000  221.00000   15.00000   18.00000    0.00000    0.00000   -9999.25   -9999.25   -9999.25   -9999.25   -9999.25   -9999.25   -9999.25   -9999.25   -9999.25
 5655.33300    0.13490    0.11470    0.01480    2.16360    0.00000    0.20590    0.11010   36.22730    0.01470    0.01370    0.80940   43.00000   13.00000    6.00000   21.00000   14.00000    2.00000    1.00000    7.00000    8.00000    3.00000    7.00000    6.00000  250.00000   10.00000   14.00000    2.00000    0.00000   -9999.25   -9999.25   -9999.25   -9999.25   -9999.25   -9999.25   -9999.25   -9999.25   -9999.25
 5655.66700    0.17080    0.77120    0.11540    2.05300    0.00000    0.21060    0.12650   37.71220    0.01590    0.01370    0.83920   35.00000   15.00000    8.00000   11.00000   14.00000    6.00000    4.00000    1.00000    7.00000    3.00000   10.00000    0.00000  199.00000   13.00000   18.00000    0.00000    0.00000   -9999.25   -9999.25   -9999.25   -9999.25   -9999.25   -9999.25   -9999.25   -9999.25   -9999.25
 5656.00000    0.17820    0.04160    0.01460    1.97080    0.00000    0.16540    0.10410   35.99990    0.01400    0.01330    0.80620   57.00000   10.00000    7.00000   12.00000   13.00000    6.00000    3.00000    0.00000    6.00000    3.00000   13.00000    0.00000  207.00000    9.00000   12.00000    1.00000    0.00000   -9999.25   -9999.25   -9999.25   -9999.25   -9999.25   -9999.25   -9999.25   -9999.25   -9999.25
 5656.33300    0.18700    0.80110    0.08560    2.02250    0.00000    0.23600    0.13920   38.18950    0.01570    0.01380    0.78520   50.00000    8.00000    7.00000   16.00000   11.00000    8.00000    4.00000    5.00000    9.00000    3.00000   12.00000    1.00000  245.00000   15.00000   18.00000    1.00000    2.00000    1.90000    5.80000    4.40000   67.40000    4.90000    4.60000    4.70000    4.00000    2.30000
 5656.66700    0.21900    0.03960    0.05830    2.00770    0.00000    0.16190    0.10090   36.01560    0.01210    0.01370    0.72930   31.00000   11.00000    8.00000   14.00000   18.00000   15.00000    5.00000    4.00000    7.00000    3.00000    9.00000   10.00000  250.00000   10.00000   20.00000    3.00000    1.00000   -9999.25   -9999.25   -9999.25   -9999.25   -9999.25   -9999.25   -9999.25   -9999.25   -9999.25
 5657.00000    0.22310    0.00000    0.06400    2.17060    0.00000    0.29350    0.11120   34.59920    0.01280    0.01360    0.77340   36.00000   11.00000    8.00000   28.00000   19.00000    8.00000    3.00000    6.00000    7.00000    3.00000   14.00000    1.00000  234.00000   13.00000   14.00000    1.00000    0.00000   -9999.25   -9999.25   -9999.25   -9999.25   -9999.25   -9999.25   -9999.25   -9999.25   -9999.25
 5657.33300    0.12080    0.30530    0.02070    2.20260    0.00000    0.27920    0.12730   35.77590    0.01590    0.01370    0.81200   29.00000   18.00000    6.00000   15.00000   15.00000    4.00000    5.00000    4.00000    7.00000    2.00000   11.00000    1.00000  207.00000   11.00000   16.00000    1.00000    0.00000   -9999.25   -9999.25   -9999.25   -9999.25   -9999.25   -9999.25   -9999.25   -9999.25   -9999.25
 5657.66700    0.21700    0.66660    0.07330    2.18650    0.00000    0.21370    0.12630   35.76560    0.01210    0.01340    0.80110   39.00000   10.00000    7.00000   20.00000   19.00000   10.00000    5.00000    5.00000    9.00000    3.00000   15.00000    1.00000  251.00000   17.00000   17.00000    2.00000    1.00000    1.90000    5.10000    4.90000   66.70000    5.60000    3.80000    3.40000    4.70000    4.00000
