~Version ---------------------------------------------------
VERS.   1.2 : CWLS LOG ASCII STANDARD - VERSION 1.2
WRAP.    NO : One line per depth step
DLM . SPACE : Column Data Section Delimiter
~Well ------------------------------------------------------
STRT.ft      5651.333 : START DEPTH
STOP.ft      5849.667 : STOP DEPTH
STEP.ft             1 : STEP
NULL.        -9999.25 : NULL VALUE
COMP.         COMPANY : 
WELL.            WELL : 
FLD .           FIELD : 
LOC .        LOCATION : 
PROV.        PROVINCE : 
CNTY.          COUNTY : 
STAT.           STATE : 
CTRY.         COUNTRY : 
SRVC. SERVICE COMPANY : 
DATE.            DATE : 2020-08-25 21:44:26.661423
UWI .  UNIQUE WELL ID : 
API .      API NUMBER : 
~Curve Information -----------------------------------------
Depth (ft).ft      : Depth in ft
%Na       .wt_pct  : XRF Sodium
%Mg       .wt_pct  : XRF Magnesium
%Al       .wt_pct  : XRF Aluminum
%Si       .wt_pct  : XRF Silicon
%P        .wt_pct  : XRF Phosphorus
%S        .wt_pct  : XRF Sulfur
%K        .wt_pct  : XRF Potassium
%Ca       .wt_pct  : XRF Calcium
%Ti       .wt_pct  : XRF Titanium
%Mn       .wt_pct  : XRF Manganese
%Fe       .wt_pct  : XRF Iron
V         .ppm     : XRF Vanadium
Cr        .ppm     : XRF Chromium
Co        .ppm     : XRF Cobalt
Ni        .ppm     : XRF Nickel
Cu        .ppm     : XRF Copper
Zn        .ppm     : XRF Zinc
Ga        .ppm     : XRF Gallium
As        .ppm     : XRF Arsenic
Pb        .ppm     : XRF Lead
Th        .ppm     : XRF Thorium
Rb        .ppm     : XRF Ribidium
U         .ppm     : XRF Uranium
Sr        .ppm     : XRF Strontium
Y         .ppm     : XRF Yttrium
Zr        .ppm     : XRF Zirconium
Nb        .ppm     : XRF Niobium
Mo        .ppm     : XRF Molybdenum
Quartz    .wt_pct  : XRD Quartz
Dolomite  .wt_pct  : XRD Dolomite
Illite    .wt_pct  : XRD Illite
Calcite   .wt_pct  : XRD Calcite
Gypsum    .wt_pct  : XRD Gypsum
Microcline.wt_pct  : XRD Microcline
Albite    .wt_pct  : XRD Albite
Pyrite    .wt_pct  : XRD Pyrite
Kaolinite .wt_pct  : XRD Kaolinite
~Params ----------------------------------------------------
~Other -----------------------------------------------------
~ASCII -----------------------------------------------------
# ...
 5833.00000    0.41150    1.97860    3.85260   14.72710    0.08260    1.48520    1.49120   17.28440    0.16950    0.01590    1.66330   13.00000   73.00000    2.00000   38.00000   17.00000   52.00000    8.00000    5.00000   10.00000    5.00000   48.00000   13.00000  383.00000   12.00000   90.00000    4.00000    6.00000   -9999.25   -9999.25   -9999.25   -9999.25   -9999.25   -9999.25   -9999.25   -9999.25   -9999.25
 5833.33300    0.35490    2.19790    2.32260   10.56940    0.09790    1.33290    1.02150   20.84440    0.11640    0.01520    1.43410   47.00000   60.00000    2.00000   33.00000   16.00000   64.00000    6.00000    3.00000    7.00000    4.00000   36.00000   18.00000  350.00000   16.00000   98.00000    3.00000    9.00000   -9999.25   -9999.25   -9999.25   -9999.25   -9999.25   -9999.25   -9999.25   -9999.25   -9999.25
 5833.66700    0.40350    1.52100    1.73670    9.56480    0.05810    1.08190    0.87610   21.71310    0.09830    0.01510    1.36150   56.00000   58.00000    4.00000   31.00000   15.00000   42.00000    4.00000    6.00000    9.00000    4.00000   37.00000   10.00000  323.00000   21.00000   96.00000    4.00000    9.00000   -9999.25   -9999.25   -9999.25   -9999.25   -9999.25   -9999.25   -9999.25   -9999.25   -9999.25
 5834.00000    0.20210    0.00000    0.36470    3.46220    0.03540    0.30000    0.24800   35.32430    0.02730    0.01380    0.79120   36.00000   20.00000    7.00000   23.00000   19.00000   23.00000    7.00000    3.00000    8.00000    3.00000   19.00000    1.00000  920.00000    0.00000   25.00000    5.00000    3.00000    3.20000    7.30000    5.50000   59.50000    6.20000    5.20000    5.10000    5.40000    2.50000
 5834.33300    0.27840    2.68870    1.97370    9.00060    0.18340    1.13720    0.94290   24.86180    0.10620    0.01480    1.28320   29.00000   56.00000    4.00000   32.00000   17.00000   72.00000    6.00000    5.00000    9.00000    5.00000   44.00000    0.00000  347.00000   18.00000   70.00000    4.00000    0.00000   -9999.25   -9999.25   -9999.25   -9999.25   -9999.25   -9999.25   -9999.25   -9999.25   -9999.25
 5834.66700    0.30250    2.32520    2.11610    8.65110    0.19650    1.21770    1.01650   25.70490    0.10580    0.01450    1.33290   31.00000   53.00000    1.00000   42.00000   19.00000   78.00000    6.00000    6.00000    9.00000    5.00000   45.00000    0.00000  368.00000   28.00000   69.00000    6.00000    0.00000   -9999.25   -9999.25   -9999.25   -9999.25   -9999.25   -9999.25   -9999.25   -9999.25   -9999.25
 5835.00000    0.17320    1.50460    2.22750    7.64150    0.54470    1.09100    1.17890   27.25170    0.13000    0.01460    1.26720   29.00000   50.00000    5.00000   62.00000   37.00000  170.00000   11.00000   13.00000   13.00000    7.00000   44.00000   31.00000 3356.00000    0.00000    0.00000    9.00000    0.00000   -9999.25   -9999.25   -9999.25   -9999.25   -9999.25   -9999.25   -9999.25   -9999.25   -9999.25
 5835.33300    0.35020    1.42560    1.76320    7.95010    0.05780    0.95900    0.98520   22.01120    0.11350    0.01410    1.51650   39.00000   50.00000    4.00000   39.00000   18.00000   86.00000    8.00000    0.00000    6.00000    5.00000   54.00000   13.00000  395.00000   20.00000   73.00000    5.00000    4.00000    6.00000   16.20000    5.30000   51.50000    5.60000    3.50000    4.50000    5.20000    2.20000
 5835.66700    0.18180    0.03420    0.33900    3.17030    0.00930    0.57020    0.23540   34.48910    0.02630    0.01370    0.78990   45.00000   14.00000    7.00000   28.00000   22.00000   28.00000    8.00000    5.00000    9.00000    4.00000   23.00000   12.00000 1925.00000    0.00000    0.00000    5.00000    0.00000   -9999.25   -9999.25   -9999.25   -9999.25   -9999.25   -9999.25   -9999.25   -9999.25   -9999.25
 5836.00000    0.26840    0.65980    0.76850    5.18440    0.00000    1.41910    0.51870   27.97410    0.05610    0.01410    0.96980   34.00000   27.00000    4.00000   16.00000   15.00000   57.00000    4.00000    4.00000    8.00000    4.00000   26.00000    0.00000  333.00000   17.00000   45.00000    2.00000    4.00000   -9999.25   -9999.25   -9999.25   -9999.25   -9999.25   -9999.25   -9999.25   -9999.25   -9999.25
 5836.33300    0.33380    2.10470    1.89680    8.99120    0.05250    0.98070    0.88260   23.99630    0.09520    0.01490    1.37680   37.00000   55.00000    4.00000   35.00000   18.00000  104.00000    5.00000    1.00000    8.00000    4.00000   32.00000    2.00000  358.00000   17.00000   60.00000    4.00000    0.00000   -9999.25   -9999.25   -9999.25   -9999.25   -9999.25   -9999.25   -9999.25   -9999.25   -9999.25
 5836.66700    0.35200    2.18390    1.60870    7.52400    0.16100    0.88990    0.79530   25.59010    0.08520    0.01450    1.32830   41.00000   45.00000    5.00000   41.00000   27.00000  102.00000   11.00000    6.00000   10.00000    6.00000   40.00000    6.00000 2213.00000    0.00000    7.00000    7.00000    0.00000   -9999.25   -9999.25   -9999.25   -9999.25   -9999.25   -9999.25   -9999.25   -9999.25   -9999.25
 5837.00000    0.34720    3.24490    2.11200    8.02970    0.23130    1.41770    1.05800   24.11480    0.14100    0.01480    1.52850   32.00000   46.00000    3.00000   52.00000   28.00000  106.00000   11.00000   14.00000   15.00000    7.00000   50.00000   34.00000 2987.00000    0.00000    0.00000   11.00000    0.00000    5.30000   17.20000    5.00000   53.30000    5.40000    4.10000    2.80000    3.70000    3.20000
 5837.33300    0.33040    2.80060    2.27210    8.49520    0.14600    1.99530    1.08250   23.58780    0.14270    0.01410    1.64410   33.00000   43.00000    2.00000   48.00000   27.00000  183.00000    8.00000    7.00000   10.00000    6.00000   51.00000    9.00000 1632.00000    0.00000   37.00000    6.00000    0.00000   -9999.25   -9999.25   -9999.25   -9999.25   -9999.25   -9999.25   -9999.25   -9999.25   -9999.25
 5837.66700    0.32360    2.86310    1.91110    8.20760    0.21350    1.01170    0.94200   24.47480    0.09940    0.01470    1.42540   56.00000   46.00000    5.00000   40.00000   24.00000   70.00000    8.00000   11.00000   12.00000    6.00000   44.00000   32.00000 2301.00000    0.00000   15.00000    8.00000    2.00000   -9999.25   -9999.25   -9999.25   -9999.25   -9999.25   -9999.25   -9999.25   -9999.25   -9999.25
 5838.00000    0.29340    2.68060    1.15430    7.58090    0.06390    1.07120    0.60280   27.56590    0.08050    0.01450    1.16310   65.00000   41.00000    4.00000   19.00000   15.00000   26.00000    6.00000    4.00000    7.00000    4.00000   36.00000    0.00000  402.00000   13.00000   71.00000    4.00000    0.00000   -9999.25   -9999.25   -9999.25   -9999.25   -9999.25   -9999.25   -9999.25   -9999.25   -9999.25
 5838.33300    0.19140    0.39140    0.39100    3.56080    0.05910    0.73630    0.23870   34.83810    0.03580    0.01390    0.81080   34.00000   20.00000    7.00000   23.00000   17.00000   57.00000    5.00000    4.00000    7.00000    3.00000   15.00000    9.00000 1017.00000    0.00000   17.00000    2.00000    0.00000    3.00000    3.30000    3.80000   68.70000    6.60000    4.00000    3.50000    4.20000    2.80000
 5838.66700    0.24150    0.01550    0.27080    3.20560    0.00000    0.44670    0.20270   34.34680    0.02800    0.01390    0.79050   37.00000   17.00000    9.00000   19.00000   16.00000   21.00000    6.00000    7.00000    9.00000    3.00000   16.00000    5.00000 1110.00000    0.00000    4.00000    4.00000    0.00000   -9999.25   -9999.25   -9999.25   -9999.25   -9999.25   -9999.25   -9999.25   -9999.25   -9999.25
 5839.00000    0.33700    2.32530    1.79530    8.52590    0.02590    1.02010    0.90000   24.36870    0.09070    0.01490    1.41970   41.00000   48.00000    4.00000   24.00000   19.00000   71.00000    6.00000    4.00000    8.00000    4.00000   39.00000    9.00000  373.00000   20.00000   64.00000    3.00000    5.00000   -9999.25   -9999.25   -9999.25   -9999.25   -9999.25   -9999.25   -9999.25   -9999.25   -9999.25
 5839.33300    0.32000    2.53230    2.92270    9.10790    0.39980    1.57340    1.44210   23.60860    0.14110    0.01500    1.39170   20.00000   55.00000    5.00000   77.00000   40.00000  119.00000   16.00000   13.00000   14.00000    8.00000   51.00000   38.00000 4651.00000    0.00000    0.00000   13.00000    0.00000   -9999.25   -9999.25   -9999.25   -9999.25   -9999.25   -9999.25   -9999.25   -9999.25   -9999.25
