~Version ---------------------------------------------------
VERS.   1.2 : CWLS LOG ASCII STANDARD - VERSION 1.2
WRAP.    NO : One line per depth step
DLM . SPACE : Column Data Section Delimiter
~Well ------------------------------------------------------
STRT.ft      5651.333 : START DEPTH
STOP.ft      5849.667 : STOP DEPTH
STEP.ft             1 : STEP
NULL.        -9999.25 : NULL VALUE
COMP.         COMPANY : 
WELL.            WELL : 
FLD .           FIELD : 
LOC .        LOCATION : 
PROV.        PROVINCE : 
CNTY.          COUNTY : 
STAT.           STATE : 
CTRY.         COUNTRY : 
SRVC. SERVICE COMPANY : 
DATE.            DATE : 2020-08-25 21:44:26.661423
UWI .  UNIQUE WELL ID : 
API .      API NUMBER : 
~Curve Information -----------------------------------------
Depth (ft).ft      : Depth in ft
%Na       .wt_pct  : XRF Sodium
%Mg       .wt_pct  : XRF Magnesium
%Al       .wt_pct  : XRF Aluminum
%Si       .wt_pct  : XRF Silicon
%P        .wt_pct  : XRF Phosphorus
%S        .wt_pct  : XRF Sulfur
%K        .wt_pct  : XRF Potassium
%Ca       .wt_pct  : XRF Calcium
%Ti       .wt_pct  : XRF Titanium
%Mn       .wt_pct  : XRF Manganese
%Fe       .wt_pct  : XRF Iron
V         .ppm     : XRF Vanadium
Cr        .ppm     : XRF Chromium
Co        .ppm     : XRF Cobalt
Ni        .ppm     : XRF Nickel
Cu        .ppm     : XRF Copper
Zn        .ppm     : XRF Zinc
Ga        .ppm     : XRF Gallium
As        .ppm     : XRF Arsenic
Pb        .ppm     : XRF Lead
Th        .ppm     : XRF Thorium
Rb        .ppm     : XRF Ribidium
U         .ppm     : XRF Uranium
Sr        .ppm     : XRF Strontium
Y         .ppm     : XRF Yttrium
Zr        .ppm     : XRF Zirconium
Nb        .ppm     : XRF Niobium
Mo        .ppm     : XRF Molybdenum
Quartz    .wt_pct  : XRD Quartz
Dolomite  .wt_pct  : XRD Dolomite
Illite    .wt_pct  : XRD Illite
Calcite   .wt_pct  : XRD Calcite
Gypsum    .wt_pct  : XRD Gypsum
Microcline.wt_pct  : XRD Microcline
Albite    .wt_pct  : XRD Albite
Pyrite    .wt_pct  : XRD Pyrite
Kaolinite .wt_pct  : XRD Kaolinite
~Params ----------------------------------------------------
~Other -----------------------------------------------------
~ASCII -----------------------------------------------------
# ...
 5720.66700    0.16880    0.83530    0.63310    3.58350    0.00000    1.15190    0.29500   33.03020    0.03350    0.01550    0.88460   35.00000   20.00000    8.00000   13.00000   15.00000   12.00000    5.00000    5.00000    8.00000    4.00000   23.00000    2.00000  605.00000    9.00000   18.00000    4.00000    0.00000   -9999.25   -9999.25   -9999.25   -9999.25   -9999.25   -9999.25   -9999.25   -9999.25   -9999.25
 5721.00000    0.18540    0.59180    0.58900    3.26230    0.00000    0.56820    0.26800   33.97800    0.02860    0.01550    0.91310   54.00000   18.00000    6.00000   16.00000   12.00000   13.00000    5.00000    7.00000    9.00000    3.00000   20.00000    7.00000  338.00000   16.00000   25.00000    3.00000    0.00000   -9999.25   -9999.25   -9999.25   -9999.25   -9999.25   -9999.25   -9999.25   -9999.25   -9999.25
 5721.33300    0.18450    0.60530    0.65930    3.48720    0.00000    0.49370    0.31360   34.63900    0.03900    0.01540    0.85250   46.00000   17.00000    6.00000   14.00000   13.00000    7.00000    5.00000    6.00000    8.00000    4.00000   23.00000    0.00000  259.00000   22.00000   29.00000    2.00000    0.00000   -9999.25   -9999.25   -9999.25   -9999.25   -9999.25   -9999.25   -9999.25   -9999.25   -9999.25
 5721.66700    0.09700    0.27610    0.74100    3.73780    0.00000    1.22900    0.29820   33.26630    0.05120    0.01500    1.11590   27.00000   21.00000    7.00000   22.00000   13.00000   17.00000    6.00000   10.00000   10.00000    4.00000   28.00000    0.00000  252.00000   20.00000   24.00000    2.00000    3.00000   -9999.25   -9999.25   -9999.25   -9999.25   -9999.25   -9999.25   -9999.25   -9999.25   -9999.25
 5722.00000    0.16890    0.15400    0.40320    2.79190    0.00000    0.35250    0.19530   35.52780    0.02590    0.01480    0.88390   51.00000    6.00000    6.00000   12.00000   14.00000    7.00000    4.00000    9.00000    9.00000    3.00000   20.00000    3.00000  257.00000   18.00000   24.00000    1.00000    5.00000    2.00000    5.70000    3.90000   59.90000    7.40000    4.70000    4.70000    6.10000    5.60000
 5722.33300    0.19380    0.49030    0.46570    3.21950    0.00000    0.57020    0.24660   35.31830    0.02900    0.01530    0.86410   64.00000   21.00000    7.00000   14.00000   14.00000    2.00000    2.00000   11.00000   10.00000    3.00000   13.00000    0.00000  242.00000   17.00000   20.00000    2.00000    0.00000   -9999.25   -9999.25   -9999.25   -9999.25   -9999.25   -9999.25   -9999.25   -9999.25   -9999.25
 5722.66700    0.24680    0.00000    1.02160    6.42380    0.00000    0.56150    0.38200   28.54480    0.05620    0.01670    0.81170   42.00000   37.00000    6.00000   13.00000   12.00000   13.00000    7.00000    5.00000    9.00000    4.00000   31.00000    6.00000  299.00000   16.00000   63.00000    3.00000    8.00000   -9999.25   -9999.25   -9999.25   -9999.25   -9999.25   -9999.25   -9999.25   -9999.25   -9999.25
 5723.00000    0.30810    0.02500    1.57670    7.61810    0.00000    0.41560    0.54340   27.32510    0.09540    0.01750    0.94030   34.00000   40.00000    6.00000   18.00000   12.00000    9.00000    7.00000    7.00000   10.00000    4.00000   35.00000    0.00000  285.00000   20.00000   80.00000    4.00000    1.00000   -9999.25   -9999.25   -9999.25   -9999.25   -9999.25   -9999.25   -9999.25   -9999.25   -9999.25
 5723.33300    0.30130    0.60780    1.77030    8.74400    0.02330    0.62080    0.58760   26.82300    0.10400    0.01740    0.91320   35.00000   40.00000    6.00000   17.00000   14.00000   10.00000    6.00000   10.00000   10.00000    4.00000   36.00000   13.00000  536.00000   18.00000   89.00000    5.00000    5.00000   13.50000    6.30000    3.10000   55.10000    8.20000    3.70000    2.40000    4.50000    3.30000
 5723.66700    0.33040    0.57150    3.06360   15.08200    0.01910    0.83620    1.00850   16.68790    0.20180    0.01880    1.46530   10.00000   64.00000    6.00000   19.00000   12.00000   13.00000    7.00000   15.00000   13.00000    6.00000   64.00000    5.00000  233.00000   20.00000  133.00000    7.00000   14.00000   -9999.25   -9999.25   -9999.25   -9999.25   -9999.25   -9999.25   -9999.25   -9999.25   -9999.25
 5724.00000    0.28860    0.94130    2.70100   10.78480    0.01220    0.69730    0.80270   23.60210    0.15090    0.01760    1.22500   12.00000   51.00000    5.00000   16.00000   15.00000   13.00000    7.00000   18.00000   13.00000    5.00000   50.00000    0.00000  483.00000   21.00000  106.00000    4.00000    7.00000   -9999.25   -9999.25   -9999.25   -9999.25   -9999.25   -9999.25   -9999.25   -9999.25   -9999.25
 5724.33300    0.35990    0.80870    3.06390   14.74450    0.02200    0.71270    0.97550   18.90850    0.19480    0.01960    1.13350    6.00000   72.00000    4.00000   11.00000   10.00000   13.00000    6.00000    8.00000   10.00000    5.00000   55.00000   13.00000  328.00000   18.00000  137.00000    8.00000   15.00000   13.20000    5.70000    3.00000   54.40000    7.60000    5.30000    3.80000    4.40000    2.70000
 5724.66700    0.27790    0.76210    2.51820   11.25360    0.00000    0.89720    0.74860   22.42310    0.18490    0.01770    1.36800   21.00000   40.00000    7.00000   13.00000   15.00000    5.00000    4.00000   14.00000   12.00000    4.00000   28.00000    0.00000  244.00000   19.00000   49.00000    4.00000    3.00000   -9999.25   -9999.25   -9999.25   -9999.25   -9999.25   -9999.25   -9999.25   -9999.25   -9999.25
 5725.00000    0.22810    0.87420    1.05250    4.70070    0.00000    0.41730    0.34370   31.92850    0.05680    0.01600    0.74370   30.00000   26.00000    7.00000   13.00000    9.00000    7.00000    3.00000   10.00000   10.00000    3.00000   26.00000    0.00000  227.00000   23.00000   49.00000    3.00000    0.00000   -9999.25   -9999.25   -9999.25   -9999.25   -9999.25   -9999.25   -9999.25   -9999.25   -9999.25
 5725.33300    0.26410    0.72900    2.07320    6.99900    0.00000    0.47430    0.54620   28.60720    0.11100    0.01590    1.10700   12.00000   32.00000    5.00000   19.00000   19.00000   19.00000    8.00000    6.00000   10.00000    5.00000   41.00000    0.00000  230.00000   24.00000   77.00000    4.00000    3.00000   -9999.25   -9999.25   -9999.25   -9999.25   -9999.25   -9999.25   -9999.25   -9999.25   -9999.25
 5725.66700    0.23170    0.64010    1.30680    5.73770    0.00000    0.38490    0.38940   30.93320    0.07590    0.01670    0.85610   37.00000   32.00000    7.00000   16.00000   16.00000   13.00000    5.00000    5.00000    8.00000    4.00000   27.00000    0.00000  226.00000   20.00000   51.00000    3.00000    0.00000    6.10000    6.00000    5.30000   63.20000    6.30000    3.00000    3.30000    3.10000    3.70000
 5726.00000    0.28970    0.01700    2.07080    7.66040    0.00000    0.47190    0.62390   24.46690    0.12470    0.01620    1.12560   16.00000   34.00000    5.00000   14.00000   17.00000    6.00000    5.00000   16.00000   12.00000    4.00000   38.00000    6.00000  259.00000   20.00000   78.00000    4.00000    6.00000   -9999.25   -9999.25   -9999.25   -9999.25   -9999.25   -9999.25   -9999.25   -9999.25   -9999.25
 5726.33300    0.15150    0.00000    0.87220    4.66990    0.00000    0.59710    0.32740   32.12590    0.04510    0.01520    1.02260   36.00000   21.00000    5.00000   22.00000   12.00000    6.00000    5.00000    9.00000   10.00000    3.00000   21.00000    0.00000  247.00000   17.00000   47.00000    2.00000    0.00000   -9999.25   -9999.25   -9999.25   -9999.25   -9999.25   -9999.25   -9999.25   -9999.25   -9999.25
 5726.66700    0.18770    0.18740    0.93180    5.19440    0.00000    0.43220    0.41740   30.88390    0.06380    0.01550    0.88320   33.00000   24.00000    7.00000   10.00000    9.00000    8.00000    5.00000    8.00000   10.00000    3.00000   21.00000    2.00000  375.00000   12.00000   41.00000    2.00000    2.00000   -9999.25   -9999.25   -9999.25   -9999.25   -9999.25   -9999.25   -9999.25   -9999.25   -9999.25
 5727.00000    0.16310    0.47130    0.72510    4.72760    0.00000    0.36110    0.32530   32.98850    0.05170    0.01530    0.82280   39.00000   25.00000    7.00000   16.00000   16.00000   10.00000    6.00000   10.00000   11.00000    4.00000   24.00000    7.00000  378.00000   14.00000   42.00000    1.00000    7.00000    8.20000    6.80000    5.00000   59.80000    5.90000    3.50000    3.60000    3.10000    4.10000
