~Version ---------------------------------------------------
VERS.   1.2 : CWLS LOG ASCII STANDARD - VERSION 1.2
WRAP.    NO : One line per depth step
DLM . SPACE : Column Data Section Delimiter
~Well ------------------------------------------------------
STRT.ft      5651.333 : START DEPTH
STOP.ft      5849.667 : STOP DEPTH
STEP.ft             1 : STEP
NULL.        -9999.25 : NULL VALUE
COMP.         COMPANY : 
WELL.            WELL : 
FLD .           FIELD : 
LOC .        LOCATION : 
PROV.        PROVINCE : 
CNTY.          COUNTY : 
STAT.           STATE : 
CTRY.         COUNTRY : 
SRVC. SERVICE COMPANY : 
DATE.            DATE : 2020-08-25 21:44:26.661423
UWI .  UNIQUE WELL ID : 
API .      API NUMBER : 
~Curve Information -----------------------------------------
Depth (ft).ft      : Depth in ft
%Na       .wt_pct  : XRF Sodium
%Mg       .wt_pct  : XRF Magnesium
%Al       .wt_pct  : XRF Aluminum
%Si       .wt_pct  : XRF Silicon
%P        .wt_pct  : XRF Phosphorus
%S        .wt_pct  : XRF Sulfur
%K        .wt_pct  : XRF Potassium
%Ca       .wt_pct  : XRF Calcium
%Ti       .wt_pct  : XRF Titanium
%Mn       .wt_pct  : XRF Manganese
%Fe       .wt_pct  : XRF Iron
V         .ppm     : XRF Vanadium
Cr        .ppm     : XRF Chromium
Co        .ppm     : XRF Cobalt
Ni        .ppm     : XRF Nickel
Cu        .ppm     : XRF Copper
Zn        .ppm     : XRF Zinc
Ga        .ppm     : XRF Gallium
As        .ppm     : XRF Arsenic
Pb        .ppm     : XRF Lead
Th        .ppm     : XRF Thorium
Rb        .ppm     : XRF Ribidium
U         .ppm     : XRF Uranium
Sr        .ppm     : XRF Strontium
Y         .ppm     : XRF Yttrium
Zr        .ppm     : XRF Zirconium
Nb        .ppm     : XRF Niobium
Mo        .ppm     : XRF Molybdenum
Quartz    .wt_pct  : XRD Quartz
Dolomite  .wt_pct  : XRD Dolomite
Illite    .wt_pct  : XRD Illite
Calcite   .wt_pct  : XRD Calcite
Gypsum    .wt_pct  : XRD Gypsum
Microcline.wt_pct  : XRD Microcline
Albite    .wt_pct  : XRD Albite
Pyrite    .wt_pct  : XRD Pyrite
Kaolinite .wt_pct  : XRD Kaolinite
~Params ----------------------------------------------------
~Other -----------------------------------------------------
~ASCII -----------------------------------------------------
# ...
 5783.33300    0.25110    0.00000    0.82280    5.48030    0.00000    0.47040    0.33620   32.18380    0.05060    0.01400    0.87700   33.00000   30.00000    6.00000   21.00000   18.00000   10.00000    5.00000    3.00000    7.00000    4.00000   30.00000    0.00000  754.00000    3.00000   30.00000    5.00000    0.00000   -9999.25   -9999.25   -9999.25   -9999.25   -9999.25   -9999.25   -9999.25   -9999.25   -9999.25
 5783.66700    0.32390    0.00000    0.99980    4.74760    0.09780    0.30620    0.33150   32.01040    0.05130    0.01430    0.85820   53.00000   17.00000    7.00000   12.00000   18.00000   12.00000    7.00000    6.00000    9.00000    4.00000   25.00000    1.00000  815.00000    3.00000   41.00000    3.00000    0.00000   -9999.25   -9999.25   -9999.25   -9999.25   -9999.25   -9999.25   -9999.25   -9999.25   -9999.25
 5784.00000    0.45830    0.97100    7.42800   27.81080    0.07240    1.33970    2.40050    3.98090    0.42540    0.02180    2.18880   16.00000  107.00000    7.00000   31.00000    8.00000   24.00000   13.00000    8.00000   12.00000    9.00000  120.00000   11.00000  191.00000   29.00000  280.00000   13.00000   17.00000   -9999.25   -9999.25   -9999.25   -9999.25   -9999.25   -9999.25   -9999.25   -9999.25   -9999.25
 5784.33300    0.36550    1.13690    7.45780   27.66660    0.08150    1.41840    2.41460    3.65410    0.44060    0.02290    2.34440   69.00000  116.00000    7.00000   39.00000   10.00000   30.00000   16.00000    4.00000   11.00000   10.00000  126.00000    0.00000  189.00000   31.00000  280.00000   14.00000   13.00000   35.20000   22.30000    6.40000   12.50000    7.40000    5.40000    3.60000    4.20000    3.00000
 5784.66700    0.42080    0.61360    6.82860   27.13400    0.40550    1.01530    2.22140    4.92440    0.39060    0.02170    2.24190   56.00000  112.00000    7.00000   35.00000   13.00000   24.00000   10.00000    7.00000   11.00000    8.00000  105.00000    5.00000  186.00000   33.00000  284.00000   12.00000   17.00000   -9999.25   -9999.25   -9999.25   -9999.25   -9999.25   -9999.25   -9999.25   -9999.25   -9999.25
 5785.00000    0.51190    1.42940    4.70530   25.86900    0.07370    1.37150    1.55990    6.48840    0.29580    0.02190    2.22840   59.00000  105.00000    7.00000   23.00000   11.00000   18.00000    7.00000    6.00000   10.00000    6.00000   77.00000    0.00000  156.00000   31.00000  258.00000   10.00000   14.00000   -9999.25   -9999.25   -9999.25   -9999.25   -9999.25   -9999.25   -9999.25   -9999.25   -9999.25
 5785.33300    0.40790    0.48170    7.57530   28.58220    0.05880    1.25800    2.39530    3.25110    0.39210    0.02210    2.30140   60.00000  100.00000    5.00000   32.00000   13.00000   32.00000   14.00000    5.00000   11.00000    9.00000  123.00000    9.00000  227.00000   29.00000  244.00000   13.00000   15.00000   -9999.25   -9999.25   -9999.25   -9999.25   -9999.25   -9999.25   -9999.25   -9999.25   -9999.25
 5785.66700    0.48440    1.03760    7.06890   27.05740    0.05030    1.18060    2.28320    4.05350    0.38880    0.02290    2.48510   37.00000   92.00000    6.00000   39.00000   11.00000   32.00000   15.00000    3.00000   10.00000    9.00000  120.00000    8.00000  183.00000   28.00000  240.00000   13.00000   23.00000   -9999.25   -9999.25   -9999.25   -9999.25   -9999.25   -9999.25   -9999.25   -9999.25   -9999.25
 5786.00000    0.28330    1.50620    7.14640   29.52440    0.10220    1.38070    2.11400    5.93370    0.37300    0.02170    2.02150   23.00000  114.00000   10.00000   34.00000    8.00000   24.00000   12.00000    8.00000   12.00000    8.00000  110.00000    6.00000  254.00000   26.00000  259.00000   12.00000   19.00000   18.90000   28.30000    6.90000   20.00000    7.10000    6.50000    4.50000    5.30000    2.50000
 5786.33300    0.43940    1.85880    6.56110   20.31060    0.06720    1.01440    2.01150    8.98000    0.31380    0.01940    2.86770   59.00000   74.00000    9.00000   42.00000   15.00000   33.00000   14.00000    7.00000   11.00000    9.00000  116.00000    2.00000  216.00000   30.00000  174.00000   10.00000    8.00000   -9999.25   -9999.25   -9999.25   -9999.25   -9999.25   -9999.25   -9999.25   -9999.25   -9999.25
 5786.66700    0.37210    0.86530    6.42800   26.77540    0.07840    1.24250    2.09540    4.54260    0.35020    0.02150    2.40730   42.00000  118.00000    6.00000   34.00000   15.00000   26.00000   12.00000    6.00000   11.00000    9.00000  115.00000    7.00000  204.00000   29.00000  259.00000   13.00000   19.00000   -9999.25   -9999.25   -9999.25   -9999.25   -9999.25   -9999.25   -9999.25   -9999.25   -9999.25
 5787.00000    0.43060    1.82460    7.72120   21.87440    0.06460    0.81470    2.50440    7.91540    0.36420    0.02080    2.92280   50.00000  101.00000    4.00000   42.00000   15.00000   33.00000   14.00000    6.00000   12.00000   10.00000  137.00000    6.00000  199.00000   28.00000  162.00000    9.00000    5.00000   -9999.25   -9999.25   -9999.25   -9999.25   -9999.25   -9999.25   -9999.25   -9999.25   -9999.25
 5787.33300    0.40010    2.48480    7.11730   20.17310    0.06270    0.81840    2.13260    9.94830    0.32950    0.01930    2.83050   35.00000   95.00000    7.00000   34.00000    9.00000   33.00000   11.00000    6.00000   11.00000    9.00000  118.00000    0.00000  208.00000   27.00000  153.00000    9.00000   10.00000   22.50000   24.40000    8.20000   21.20000    6.60000    5.90000    2.80000    4.50000    3.70000
 5787.66700    0.41690    2.02310    7.75820   22.10910    0.09480    1.17640    2.49720    7.97430    0.37770    0.02050    2.89120   42.00000   93.00000   11.00000   42.00000   12.00000   32.00000   14.00000    7.00000   11.00000   12.00000  157.00000    1.00000  212.00000   26.00000  154.00000   11.00000    6.00000   -9999.25   -9999.25   -9999.25   -9999.25   -9999.25   -9999.25   -9999.25   -9999.25   -9999.25
 5788.33300    0.40450    2.10030    7.53800   20.82060    0.05320    0.94280    2.32220    9.01470    0.34170    0.01900    3.02480   39.00000   98.00000    9.00000   44.00000   12.00000   31.00000   13.00000    5.00000   11.00000   10.00000  134.00000    0.00000  230.00000   27.00000  171.00000   10.00000    9.00000   -9999.25   -9999.25   -9999.25   -9999.25   -9999.25   -9999.25   -9999.25   -9999.25   -9999.25
 5788.66700    0.37060    2.48830    4.70740   18.38600    0.10400    0.83970    1.68040   11.84300    0.24790    0.01890    2.50890   49.00000   92.00000    8.00000   38.00000   12.00000   27.00000   12.00000    0.00000    8.00000    7.00000   92.00000    1.00000  208.00000   32.00000  173.00000    9.00000   15.00000   -9999.25   -9999.25   -9999.25   -9999.25   -9999.25   -9999.25   -9999.25   -9999.25   -9999.25
 5789.00000    0.43330    1.38380    6.54850   22.36890    0.11430    1.12780    2.26870    9.15120    0.33960    0.01910    2.45740   40.00000   94.00000   11.00000   39.00000   11.00000   27.00000   12.00000    2.00000   10.00000    8.00000   99.00000    0.00000  190.00000   32.00000  194.00000   10.00000   11.00000   -9999.25   -9999.25   -9999.25   -9999.25   -9999.25   -9999.25   -9999.25   -9999.25   -9999.25
 5789.33300    0.25890    0.00000    0.49900    4.52210    0.00000    0.38170    0.31500   30.28210    0.03910    0.01410    0.94280   42.00000   18.00000    7.00000   20.00000   15.00000    9.00000    5.00000    0.00000    5.00000    3.00000   23.00000    4.00000  245.00000   17.00000   43.00000    3.00000    0.00000    3.40000    4.30000    5.40000   64.40000    5.60000    4.90000    3.90000    5.90000    2.10000
 5789.66700    0.42190    1.23320    6.50440   22.70150    0.06600    1.11710    2.40420    7.51860    0.35930    0.02120    2.42670   33.00000  107.00000    6.00000   41.00000   14.00000   55.00000   13.00000    1.00000    9.00000    9.00000  107.00000    2.00000  192.00000   31.00000  204.00000   10.00000    7.00000   -9999.25   -9999.25   -9999.25   -9999.25   -9999.25   -9999.25   -9999.25   -9999.25   -9999.25
 5790.00000    0.39720    3.11290    5.10280   18.56990    0.10930    0.91610    1.73440   12.15770    0.27810    0.01910    2.72490   50.00000   86.00000    7.00000   36.00000   13.00000   23.00000    9.00000    6.00000   10.00000    7.00000   87.00000    0.00000  190.00000   33.00000  152.00000    7.00000    7.00000   -9999.25   -9999.25   -9999.25   -9999.25   -9999.25   -9999.25   -9999.25   -9999.25   -9999.25
