~Version ---------------------------------------------------
VERS.   1.2 : CWLS LOG ASCII STANDARD - VERSION 1.2
WRAP.    NO : One line per depth step
DLM . SPACE : Column Data Section Delimiter
~Well ------------------------------------------------------
STRT.ft      5651.333 : START DEPTH
STOP.ft      5849.667 : STOP DEPTH
STEP.ft             1 : STEP
NULL.        -9999.25 : NULL VALUE
COMP.         COMPANY : 
WELL.            WELL : 
FLD .           FIELD : 
LOC .        LOCATION : 
PROV.        PROVINCE : 
CNTY.          COUNTY : 
STAT.           STATE : 
CTRY.         COUNTRY : 
SRVC. SERVICE COMPANY : 
DATE.            DATE : 2020-08-25 21:44:26.661423
UWI .  UNIQUE WELL ID : 
API .      API NUMBER : 
~Curve Information -----------------------------------------
Depth (ft).ft      : Depth in ft
%Na       .wt_pct  : XRF Sodium
%Mg       .wt_pct  : XRF Magnesium
%Al       .wt_pct  : XRF Aluminum
%Si       .wt_pct  : XRF Silicon
%P        .wt_pct  : XRF Phosphorus
%S        .wt_pct  : XRF Sulfur
%K        .wt_pct  : XRF Potassium
%Ca       .wt_pct  : XRF Calcium
%Ti       .wt_pct  : XRF Titanium
%Mn       .wt_pct  : XRF Manganese
%Fe       .wt_pct  : XRF Iron
V         .ppm     : XRF Vanadium
Cr        .ppm     : XRF Chromium
Co        .ppm     : XRF Cobalt
Ni        .ppm     : XRF Nickel
Cu        .ppm     : XRF Copper
Zn        .ppm     : XRF Zinc
Ga        .ppm     : XRF Gallium
As        .ppm     : XRF Arsenic
Pb        .ppm     : XRF Lead
Th        .ppm     : XRF Thorium
Rb        .ppm     : XRF Ribidium
U         .ppm     : XRF Uranium
Sr        .ppm     : XRF Strontium
Y         .ppm     : XRF Yttrium
Zr        .ppm     : XRF Zirconium
Nb        .ppm     : XRF Niobium
Mo        .ppm     : XRF Molybdenum
Quartz    .wt_pct  : XRD Quartz
Dolomite  .wt_pct  : XRD Dolomite
Illite    .wt_pct  : XRD Illite
Calcite   .wt_pct  : XRD Calcite
Gypsum    .wt_pct  : XRD Gypsum
Microcline.wt_pct  : XRD Microcline
Albite    .wt_pct  : XRD Albite
Pyrite    .wt_pct  : XRD Pyrite
Kaolinite .wt_pct  : XRD Kaolinite
~Params ----------------------------------------------------
~Other -----------------------------------------------------
~ASCII -----------------------------------------------------
# ...
 5846.66700    0.35100    1.21730    2.35600   11.57360    0.10640    1.01690    1.13500   22.36910    0.11710    0.01540    1.18280   50.00000   59.00000    5.00000   43.00000   23.00000  236.00000    7.00000    3.00000    8.00000    5.00000   53.00000    2.00000  352.00000   22.00000   70.00000    4.00000    2.00000   -9999.25   -9999.25   -9999.25   -9999.25   -9999.25   -9999.25   -9999.25   -9999.25   -9999.25
 5847.00000    0.40040    0.40830    2.19490   10.13550    0.05430    1.52070    1.08320   20.86690    0.10910    0.01450    1.30480   34.00000   40.00000    3.00000   50.00000   20.00000   85.00000    7.00000    5.00000   10.00000    5.00000   54.00000    0.00000  354.00000   22.00000   75.00000    5.00000    1.00000   -9999.25   -9999.25   -9999.25   -9999.25   -9999.25   -9999.25   -9999.25   -9999.25   -9999.25
 5847.33300    0.23660    0.37930    0.23830    3.41710    0.00000    0.53850    0.24910   34.32450    0.02270    0.01350    0.92390   42.00000   19.00000    7.00000   20.00000   16.00000   21.00000    7.00000    1.00000    8.00000    4.00000   20.00000    0.00000  287.00000   16.00000   28.00000    2.00000    0.00000    2.10000    5.20000    3.80000   68.70000    4.60000    4.70000    4.20000    4.80000    1.80000
 5847.66700    0.16230    0.00000    0.45210    2.83990    0.04260    0.80790    0.21880   35.32320    0.02880    0.01280    1.08410   42.00000   17.00000    3.00000   17.00000   16.00000    9.00000    4.00000    5.00000    9.00000    3.00000   16.00000    6.00000  288.00000   15.00000   31.00000    3.00000    3.00000   -9999.25   -9999.25   -9999.25   -9999.25   -9999.25   -9999.25   -9999.25   -9999.25   -9999.25
 5848.00000    0.11770    0.00000    0.32740    3.02410    0.00000    0.52480    0.23960   35.32010    0.03120    0.01340    0.91600   43.00000   15.00000    4.00000   20.00000   18.00000   15.00000    6.00000    6.00000    8.00000    3.00000   17.00000   17.00000  939.00000    1.00000    5.00000    1.00000    0.00000   -9999.25   -9999.25   -9999.25   -9999.25   -9999.25   -9999.25   -9999.25   -9999.25   -9999.25
 5848.33300    0.17710    0.27660    0.35080    2.92750    0.00000    0.94210    0.23590   34.26180    0.02920    0.01340    0.95930   36.00000   18.00000    6.00000   25.00000   18.00000   23.00000    7.00000    3.00000    8.00000    4.00000   26.00000    6.00000 1038.00000    0.00000    4.00000    5.00000    2.00000   -9999.25   -9999.25   -9999.25   -9999.25   -9999.25   -9999.25   -9999.25   -9999.25   -9999.25
 5848.66700    0.15160    1.11200    0.71650    3.92860    0.04840    0.73790    0.34490   34.22950    0.04420    0.01340    1.02560   44.00000   23.00000    9.00000   29.00000   16.00000   20.00000    5.00000    5.00000    9.00000    3.00000   18.00000    1.00000  345.00000   14.00000   26.00000    1.00000    6.00000   -9999.25   -9999.25   -9999.25   -9999.25   -9999.25   -9999.25   -9999.25   -9999.25   -9999.25
 5849.00000    0.24860    1.47340    4.06120   13.38260    0.02450    1.25610    1.86680   19.29600    0.21250    0.01610    1.43540   11.00000   58.00000    7.00000   50.00000   17.00000   29.00000    9.00000    7.00000   10.00000    7.00000   89.00000    8.00000  268.00000   23.00000  127.00000    7.00000   10.00000   15.70000    9.30000    5.10000   50.40000    6.80000    3.60000    2.70000    3.80000    2.60000
 5849.33300    0.32740    0.55720    3.17800   14.12720    0.02800    1.29110    1.27650   18.24540    0.16420    0.01620    1.51030   30.00000   61.00000    6.00000   24.00000   15.00000   21.00000    7.00000    9.00000   11.00000    5.00000   60.00000    6.00000  260.00000   25.00000  186.00000    7.00000   14.00000   -9999.25   -9999.25   -9999.25   -9999.25   -9999.25   -9999.25   -9999.25   -9999.25   -9999.25
 5849.66700    0.37210    0.19900    3.12060   13.64940    0.00430    1.56490    1.34130   16.10100    0.16940    0.01600    1.53390   21.00000   66.00000    8.00000   28.00000   13.00000   12.00000    9.00000    6.00000   10.00000    6.00000   64.00000    0.00000  262.00000   24.00000  157.00000    6.00000    8.00000   -9999.25   -9999.25   -9999.25   -9999.25   -9999.25   -9999.25   -9999.25   -9999.25   -9999.25
