~Version ---------------------------------------------------
VERS.   1.2 : CWLS LOG ASCII STANDARD - VERSION 1.2
WRAP.    NO : One line per depth step
DLM . SPACE : Column Data Section Delimiter
~Well ------------------------------------------------------
STRT.ft      5651.333 : START DEPTH
STOP.ft      5849.667 : STOP DEPTH
STEP.ft             1 : STEP
NULL.        -9999.25 : NULL VALUE
COMP.         COMPANY : 
WELL.            WELL : 
FLD .           FIELD : 
LOC .        LOCATION : 
PROV.        PROVINCE : 
CNTY.          COUNTY : 
STAT.           STATE : 
CTRY.         COUNTRY : 
SRVC. SERVICE COMPANY : 
DATE.            DATE : 2020-08-25 21:44:26.661423
UWI .  UNIQUE WELL ID : 
API .      API NUMBER : 
~Curve Information -----------------------------------------
Depth (ft).ft      : Depth in ft
%Na       .wt_pct  : XRF Sodium
%Mg       .wt_pct  : XRF Magnesium
%Al       .wt_pct  : XRF Aluminum
%Si       .wt_pct  : XRF Silicon
%P        .wt_pct  : XRF Phosphorus
%S        .wt_pct  : XRF Sulfur
%K        .wt_pct  : XRF Potassium
%Ca       .wt_pct  : XRF Calcium
%Ti       .wt_pct  : XRF Titanium
%Mn       .wt_pct  : XRF Manganese
%Fe       .wt_pct  : XRF Iron
V         .ppm     : XRF Vanadium
Cr        .ppm     : XRF Chromium
Co        .ppm     : XRF Cobalt
Ni        .ppm     : XRF Nickel
Cu        .ppm     : XRF Copper
Zn        .ppm     : XRF Zinc
Ga        .ppm     : XRF Gallium
As        .ppm     : XRF Arsenic
Pb        .ppm     : XRF Lead
Th        .ppm     : XRF Thorium
Rb        .ppm     : XRF Ribidium
U         .ppm     : XRF Uranium
Sr        .ppm     : XRF Strontium
Y         .ppm     : XRF Yttrium
Zr        .ppm     : XRF Zirconium
Nb        .ppm     : XRF Niobium
Mo        .ppm     : XRF Molybdenum
Quartz    .wt_pct  : XRD Quartz
Dolomite  .wt_pct  : XRD Dolomite
Illite    .wt_pct  : XRD Illite
Calcite   .wt_pct  : XRD Calcite
Gypsum    .wt_pct  : XRD Gypsum
Microcline.wt_pct  : XRD Microcline
Albite    .wt_pct  : XRD Albite
Pyrite    .wt_pct  : XRD Pyrite
Kaolinite .wt_pct  : XRD Kaolinite
~Params ----------------------------------------------------
~Other -----------------------------------------------------
~ASCII -----------------------------------------------------
# ...
 5749.33300    0.11700    0.88520    0.20480    2.53500    0.00000    0.28070    0.17040   35.67600    0.02480    0.01370    0.76600   44.00000   12.00000    6.00000    8.00000   11.00000   10.00000    3.00000    3.00000    8.00000    2.00000   12.00000    2.00000  314.00000    7.00000   17.00000    1.00000    3.00000   -9999.25   -9999.25   -9999.25   -9999.25   -9999.25   -9999.25   -9999.25   -9999.25   -9999.25
 5749.66700    0.18430    1.90320    0.05660    1.99640    0.00000    0.16070    0.13010   37.93930    0.01750    0.01350    0.63880   56.00000   11.00000    8.00000   14.00000   15.00000   10.00000    5.00000    2.00000    5.00000    3.00000   11.00000    5.00000  606.00000    1.00000    4.00000    2.00000    0.00000    1.90000    7.60000    4.00000   61.40000    6.70000    5.40000    3.70000    5.60000    3.70000
 5750.00000    0.15570    1.05380    0.20670    2.25790    0.00000    0.39670    0.14020   37.58340    0.02290    0.01390    0.70540   48.00000   17.00000    8.00000   15.00000   11.00000   12.00000    6.00000    8.00000   10.00000    3.00000   10.00000    0.00000  660.00000    0.00000    2.00000    3.00000    0.00000   -9999.25   -9999.25   -9999.25   -9999.25   -9999.25   -9999.25   -9999.25   -9999.25   -9999.25
 5750.33300    0.15400    0.49990    0.18680    2.27420    0.00000    0.25710    0.14910   34.96400    0.02270    0.01360    0.79830   34.00000    7.00000    6.00000   16.00000   17.00000   13.00000    5.00000    4.00000    8.00000    3.00000   13.00000    0.00000  459.00000    7.00000   11.00000    1.00000    0.00000   -9999.25   -9999.25   -9999.25   -9999.25   -9999.25   -9999.25   -9999.25   -9999.25   -9999.25
 5750.66700    0.18530    1.66870    0.08250    1.88750    0.00000    0.18970    0.08740   37.15950    0.01590    0.01420    0.74700   50.00000   16.00000    8.00000   18.00000   20.00000    4.00000    3.00000    3.00000    7.00000    3.00000   12.00000    3.00000  644.00000    2.00000    4.00000    0.00000    0.00000   -9999.25   -9999.25   -9999.25   -9999.25   -9999.25   -9999.25   -9999.25   -9999.25   -9999.25
 5751.00000    0.21430    0.82010    0.67990    3.08100    0.00000    0.97280    0.24900   32.54990    0.06160    0.01350    0.98460   21.00000   14.00000    8.00000   11.00000   14.00000   10.00000    3.00000    2.00000    8.00000    3.00000   16.00000    0.00000  405.00000    5.00000   16.00000    1.00000    1.00000   -9999.25   -9999.25   -9999.25   -9999.25   -9999.25   -9999.25   -9999.25   -9999.25   -9999.25
 5751.33300    0.16010    1.42860    0.21270    2.22850    0.00000    0.23930    0.13670   35.75400    0.01630    0.01380    0.76720   44.00000   10.00000    7.00000   12.00000   14.00000    6.00000    3.00000    0.00000    2.00000    2.00000   10.00000    6.00000  326.00000    8.00000   15.00000    2.00000    0.00000    2.00000    5.00000    3.60000   65.90000    6.60000    5.10000    4.00000    3.40000    4.50000
 5751.66700    0.22360    0.82130    0.17970    2.17220    0.00000    0.23300    0.11630   35.65780    0.01430    0.01360    0.80360   33.00000   11.00000    8.00000    9.00000   17.00000    5.00000    5.00000    2.00000    4.00000    3.00000   12.00000    0.00000  305.00000    9.00000   14.00000    0.00000    0.00000   -9999.25   -9999.25   -9999.25   -9999.25   -9999.25   -9999.25   -9999.25   -9999.25   -9999.25
 5752.00000    0.16240    0.73810    0.06400    2.06360    0.00000    0.20020    0.11510   36.80270    0.01100    0.01370    0.75250   40.00000   12.00000    7.00000    8.00000   16.00000    6.00000    5.00000    3.00000    9.00000    3.00000   13.00000    5.00000  318.00000   10.00000   15.00000    2.00000    6.00000   -9999.25   -9999.25   -9999.25   -9999.25   -9999.25   -9999.25   -9999.25   -9999.25   -9999.25
 5752.33300    0.18500    1.91440    0.18580    2.19970    0.00000    0.21350    0.13080   35.61800    0.02360    0.01360    0.82340   51.00000   14.00000    8.00000   11.00000   15.00000    3.00000    2.00000    6.00000    5.00000    3.00000   12.00000    0.00000  307.00000    4.00000   17.00000    1.00000    0.00000   -9999.25   -9999.25   -9999.25   -9999.25   -9999.25   -9999.25   -9999.25   -9999.25   -9999.25
 5752.66700    0.18810    0.86840    0.13550    2.25010    0.00000    0.27260    0.14100   35.53810    0.01570    0.01360    0.77590   33.00000    7.00000    7.00000   12.00000   13.00000    9.00000    5.00000    1.00000    8.00000    2.00000   15.00000    5.00000  305.00000   12.00000   20.00000    0.00000    5.00000   -9999.25   -9999.25   -9999.25   -9999.25   -9999.25   -9999.25   -9999.25   -9999.25   -9999.25
 5753.00000    0.16710    1.13530    0.14340    2.18240    0.00000    0.18770    0.13720   36.81160    0.01520    0.01360    0.74920   35.00000   10.00000    7.00000   10.00000   11.00000    0.00000    3.00000    8.00000    9.00000    3.00000   13.00000    5.00000  302.00000   11.00000   18.00000    0.00000    3.00000    1.90000    6.50000    6.30000   61.60000    5.60000    5.40000    4.80000    3.70000    4.20000
 5753.33300    0.25170    0.98770    0.09590    2.14970    0.00000    0.16630    0.13290   34.97750    0.01380    0.01370    0.75270   34.00000   11.00000    8.00000   16.00000   14.00000    2.00000    3.00000    5.00000    7.00000    2.00000    8.00000    9.00000  286.00000   12.00000   13.00000    1.00000    0.00000   -9999.25   -9999.25   -9999.25   -9999.25   -9999.25   -9999.25   -9999.25   -9999.25   -9999.25
 5753.66700    0.16380    1.11500    0.22420    2.37920    0.00000    0.27880    0.15180   35.94290    0.02060    0.01370    0.76240   38.00000    8.00000    8.00000   15.00000   13.00000    3.00000    2.00000   10.00000    9.00000    3.00000   11.00000    0.00000  264.00000   11.00000   21.00000    3.00000    0.00000   -9999.25   -9999.25   -9999.25   -9999.25   -9999.25   -9999.25   -9999.25   -9999.25   -9999.25
 5754.00000    0.22820    2.32160    0.46640    2.59480    0.00000    0.77370    0.18190   33.77470    0.02480    0.01370    0.85430   52.00000   11.00000    8.00000   17.00000   18.00000    3.00000    5.00000    7.00000    8.00000    3.00000   14.00000    4.00000  302.00000    7.00000   20.00000    2.00000    2.00000   -9999.25   -9999.25   -9999.25   -9999.25   -9999.25   -9999.25   -9999.25   -9999.25   -9999.25
 5754.33300    0.23610    2.08420    0.20210    2.10820    0.00000    0.25990    0.12640   35.15380    0.01540    0.01370    0.76130   46.00000   11.00000    8.00000   12.00000   12.00000    7.00000    3.00000    2.00000    8.00000    3.00000    8.00000    5.00000  275.00000    6.00000   20.00000    0.00000    2.00000   -9999.25   -9999.25   -9999.25   -9999.25   -9999.25   -9999.25   -9999.25   -9999.25   -9999.25
 5754.66700    0.25050    2.06620    0.11680    2.03070    0.00000    0.32460    0.12510   35.46790    0.01090    0.01380    0.79030   40.00000   14.00000    7.00000   18.00000   13.00000   10.00000    5.00000    8.00000    9.00000    3.00000   10.00000    0.00000  320.00000    8.00000   11.00000    2.00000    0.00000    1.60000   11.20000    3.80000   58.60000    5.70000    6.30000    4.60000    4.80000    3.50000
 5755.00000    0.29480    2.55700    0.19980    2.36070    0.00000    0.39280    0.16260   32.44200    0.01760    0.01370    0.87470   38.00000   17.00000    7.00000   17.00000   15.00000    4.00000    3.00000    8.00000   10.00000    3.00000   11.00000   11.00000  327.00000    8.00000   17.00000    1.00000    5.00000   -9999.25   -9999.25   -9999.25   -9999.25   -9999.25   -9999.25   -9999.25   -9999.25   -9999.25
 5755.33300    0.43790    6.21690    0.11500    2.35110    0.00000    0.38710    0.13070   29.05350    0.02290    0.01410    0.85020   65.00000   21.00000    7.00000    7.00000   11.00000    6.00000    3.00000    4.00000    6.00000    2.00000   12.00000    2.00000  256.00000    5.00000   18.00000    2.00000    5.00000   -9999.25   -9999.25   -9999.25   -9999.25   -9999.25   -9999.25   -9999.25   -9999.25   -9999.25
 5755.66700    0.42300    5.87830    0.18430    2.34610    0.00000    0.31290    0.15780   30.11400    0.01710    0.01430    0.86220   57.00000   28.00000    5.00000    9.00000   11.00000    3.00000    4.00000    5.00000    8.00000    2.00000   10.00000    4.00000  245.00000    7.00000   16.00000    2.00000    0.00000   -9999.25   -9999.25   -9999.25   -9999.25   -9999.25   -9999.25   -9999.25   -9999.25   -9999.25
