~Version ---------------------------------------------------
VERS.   1.2 : CWLS LOG ASCII STANDARD - VERSION 1.2
WRAP.    NO : One line per depth step
DLM . SPACE : Column Data Section Delimiter
~Well ------------------------------------------------------
STRT.ft      5651.333 : START DEPTH
STOP.ft      5849.667 : STOP DEPTH
STEP.ft             1 : STEP
NULL.        -9999.25 : NULL VALUE
COMP.         COMPANY : 
WELL.            WELL : 
FLD .           FIELD : 
LOC .        LOCATION : 
PROV.        PROVINCE : 
CNTY.          COUNTY : 
STAT.           STATE : 
CTRY.         COUNTRY : 
SRVC. SERVICE COMPANY : 
DATE.            DATE : 2020-08-25 21:44:26.661423
UWI .  UNIQUE WELL ID : 
API .      API NUMBER : 
~Curve Information -----------------------------------------
Depth (ft).ft      : Depth in ft
%Na       .wt_pct  : XRF Sodium
%Mg       .wt_pct  : XRF Magnesium
%Al       .wt_pct  : XRF Aluminum
%Si       .wt_pct  : XRF Silicon
%P        .wt_pct  : XRF Phosphorus
%S        .wt_pct  : XRF Sulfur
%K        .wt_pct  : XRF Potassium
%Ca       .wt_pct  : XRF Calcium
%Ti       .wt_pct  : XRF Titanium
%Mn       .wt_pct  : XRF Manganese
%Fe       .wt_pct  : XRF Iron
V         .ppm     : XRF Vanadium
Cr        .ppm     : XRF Chromium
Co        .ppm     : XRF Cobalt
Ni        .ppm     : XRF Nickel
Cu        .ppm     : XRF Copper
Zn        .ppm     : XRF Zinc
Ga        .ppm     : XRF Gallium
As        .ppm     : XRF Arsenic
Pb        .ppm     : XRF Lead
Th        .ppm     : XRF Thorium
Rb        .ppm     : XRF Ribidium
U         .ppm     : XRF Uranium
Sr        .ppm     : XRF Strontium
Y         .ppm     : XRF Yttrium
Zr        .ppm     : XRF Zirconium
Nb        .ppm     : XRF Niobium
Mo        .ppm     : XRF Molybdenum
Quartz    .wt_pct  : XRD Quartz
Dolomite  .wt_pct  : XRD Dolomite
Illite    .wt_pct  : XRD Illite
Calcite   .wt_pct  : XRD Calcite
Gypsum    .wt_pct  : XRD Gypsum
Microcline.wt_pct  : XRD Microcline
Albite    .wt_pct  : XRD Albite
Pyrite    .wt_pct  : XRD Pyrite
Kaolinite .wt_pct  : XRD Kaolinite
~Params ----------------------------------------------------
~Other -----------------------------------------------------
~ASCII -----------------------------------------------------
# ...
 5666.66700    0.11180    0.61060    0.17110    2.39340    0.00000    0.26270    0.13880   37.33020    0.01800    0.01370    0.80750   41.00000   11.00000    6.00000   23.00000   20.00000    4.00000    3.00000    7.00000    8.00000    3.00000   15.00000    0.00000  228.00000   16.00000   23.00000    2.00000    0.00000   -9999.25   -9999.25   -9999.25   -9999.25   -9999.25   -9999.25   -9999.25   -9999.25   -9999.25
 5667.00000    0.18300    0.50790    0.15320    2.53860    0.00000    0.75070    0.18120   34.31640    0.02270    0.01330    0.90630   54.00000   14.00000    7.00000   22.00000   14.00000   13.00000    5.00000   10.00000   10.00000    3.00000   20.00000    0.00000  225.00000   18.00000   21.00000    2.00000    0.00000   -9999.25   -9999.25   -9999.25   -9999.25   -9999.25   -9999.25   -9999.25   -9999.25   -9999.25
 5667.33300    0.12250    0.69900    0.18690    2.37180    0.00000    0.27030    0.14040   37.34810    0.02390    0.01360    0.81720   57.00000   10.00000    9.00000   20.00000   16.00000   13.00000    6.00000   10.00000   11.00000    3.00000   18.00000    0.00000  190.00000   16.00000   22.00000    1.00000    0.00000    2.30000    5.40000    4.70000   63.50000    6.10000    6.20000    3.30000    5.80000    2.70000
 5667.66700    0.22620    0.21800    0.15270    2.44790    0.00000    0.19420    0.16200   35.09590    0.01910    0.01390    0.84650   46.00000   10.00000    7.00000   27.00000   10.00000    9.00000    4.00000   13.00000   11.00000    3.00000   15.00000    0.00000  206.00000   13.00000   21.00000    1.00000    2.00000   -9999.25   -9999.25   -9999.25   -9999.25   -9999.25   -9999.25   -9999.25   -9999.25   -9999.25
 5668.00000    0.25630    0.52280    0.53530    2.74730    0.00000    0.50880    0.16870   33.77520    0.02730    0.01350    0.91770   51.00000   14.00000    5.00000   23.00000   18.00000    9.00000    3.00000   10.00000   10.00000    3.00000   16.00000    0.00000  638.00000    6.00000    9.00000    3.00000    0.00000   -9999.25   -9999.25   -9999.25   -9999.25   -9999.25   -9999.25   -9999.25   -9999.25   -9999.25
 5668.33300    0.11470    0.00000    0.35290    2.59900    0.00000    0.31460    0.16030   35.49340    0.02240    0.01320    1.01350   40.00000   16.00000    8.00000   20.00000   19.00000    5.00000    2.00000   20.00000   14.00000    3.00000   13.00000    0.00000  247.00000   18.00000   25.00000    1.00000    0.00000   -9999.25   -9999.25   -9999.25   -9999.25   -9999.25   -9999.25   -9999.25   -9999.25   -9999.25
 5668.66700    0.19820    0.83090    0.40300    2.98080    0.00000    0.36560    0.18270   34.46520    0.03130    0.01310    1.02510   51.00000   14.00000    6.00000   14.00000   14.00000    1.00000    2.00000    6.00000    8.00000    3.00000   20.00000    0.00000  219.00000   16.00000   26.00000    1.00000    0.00000    2.00000    4.50000    5.60000   67.40000    5.60000    3.30000    4.60000    4.10000    2.90000
 5669.00000    0.14510    0.27520    0.37180    2.58160    0.00000    0.32010    0.19670   35.44100    0.03200    0.01390    0.77520   46.00000    8.00000    6.00000   19.00000   15.00000    7.00000    2.00000    9.00000    8.00000    3.00000   13.00000    7.00000  341.00000   14.00000   28.00000    1.00000    0.00000   -9999.25   -9999.25   -9999.25   -9999.25   -9999.25   -9999.25   -9999.25   -9999.25   -9999.25
 5669.33300    0.17390    0.06330    0.42990    2.85490    0.00000    0.47940    0.19840   34.79870    0.03240    0.01330    0.93160   37.00000   13.00000    7.00000   15.00000   15.00000   11.00000    2.00000   11.00000   10.00000    3.00000   21.00000    0.00000  422.00000   14.00000   22.00000    2.00000    0.00000   -9999.25   -9999.25   -9999.25   -9999.25   -9999.25   -9999.25   -9999.25   -9999.25   -9999.25
 5669.66700    0.18700    0.06830    0.24310    2.68630    0.00000    0.28130    0.15620   33.21440    0.01840    0.01350    0.92910   43.00000   17.00000    6.00000   22.00000   18.00000   13.00000    7.00000    8.00000    9.00000    3.00000   16.00000    0.00000  243.00000   15.00000   20.00000    1.00000    0.00000   -9999.25   -9999.25   -9999.25   -9999.25   -9999.25   -9999.25   -9999.25   -9999.25   -9999.25
 5670.00000    0.18510    0.13780    0.44550    2.84490    0.00000    0.77350    0.21630   33.67380    0.03270    0.01320    1.07640   36.00000   10.00000    4.00000   20.00000   15.00000    8.00000    3.00000   13.00000   11.00000    3.00000   11.00000    3.00000  270.00000   15.00000   22.00000    0.00000    0.00000    3.00000    5.10000    4.30000   66.30000    8.20000    4.50000    3.50000    3.40000    1.70000
 5670.33300    0.22870    0.15000    0.71200    3.35050    0.00000    0.92760    0.24260   32.69090    0.04280    0.01340    1.19550   41.00000   15.00000    4.00000   21.00000   16.00000   15.00000    7.00000   10.00000   11.00000    3.00000   20.00000    0.00000  250.00000   14.00000   28.00000    1.00000    0.00000   -9999.25   -9999.25   -9999.25   -9999.25   -9999.25   -9999.25   -9999.25   -9999.25   -9999.25
 5670.66700    0.10480    0.86320    0.20280    2.32300    0.00000    1.02800    0.13780   36.36510    0.02230    0.01360    0.96980   45.00000   12.00000    6.00000   11.00000   15.00000    9.00000    3.00000    4.00000    9.00000    3.00000   17.00000    0.00000  264.00000   12.00000   18.00000    3.00000    0.00000   -9999.25   -9999.25   -9999.25   -9999.25   -9999.25   -9999.25   -9999.25   -9999.25   -9999.25
 5671.00000    0.18320    0.45020    0.17810    2.20370    0.00000    0.25170    0.13690   36.47260    0.01520    0.01350    0.89500   35.00000   20.00000    6.00000   12.00000   14.00000   10.00000    3.00000    5.00000    7.00000    3.00000   17.00000    0.00000  242.00000   16.00000   23.00000    2.00000    0.00000   -9999.25   -9999.25   -9999.25   -9999.25   -9999.25   -9999.25   -9999.25   -9999.25   -9999.25
 5672.33300    0.13540    0.59560    0.53460    3.17220    0.02160    0.70630    0.20080   34.44210    0.03160    0.01350    1.03450   58.00000   19.00000    2.00000   39.00000   21.00000   21.00000   11.00000   38.00000   15.00000    6.00000   50.00000    0.00000 1247.00000    0.00000   46.00000    6.00000    2.00000    2.90000    4.80000    4.80000   63.80000    7.10000    3.70000    3.90000    5.20000    3.70000
 5673.00000    0.18140    1.26920    0.92030    3.23900    0.00000    1.55150    0.22900   34.04420    0.03250    0.01310    1.12710   47.00000   19.00000    4.00000   14.00000   16.00000   11.00000    6.00000   14.00000   12.00000    3.00000   21.00000    9.00000  293.00000   18.00000   33.00000    2.00000    2.00000   -9999.25   -9999.25   -9999.25   -9999.25   -9999.25   -9999.25   -9999.25   -9999.25   -9999.25
 5673.33300    0.12980    1.25710    0.52730    2.81550    0.00130    1.68600    0.18830   34.75530    0.03140    0.01330    1.08290   60.00000   10.00000    6.00000   17.00000   12.00000   13.00000    5.00000   15.00000   13.00000    3.00000   17.00000    0.00000  252.00000   17.00000   23.00000    0.00000    0.00000   -9999.25   -9999.25   -9999.25   -9999.25   -9999.25   -9999.25   -9999.25   -9999.25   -9999.25
 5673.66700    0.23550    1.46100    1.40550    4.83980    0.01470    1.65030    0.37500   30.33870    0.08370    0.01360    1.26200   30.00000   22.00000    4.00000   30.00000   17.00000   13.00000    6.00000   28.00000   20.00000    3.00000   27.00000    0.00000  306.00000   16.00000   39.00000    3.00000    0.00000   -9999.25   -9999.25   -9999.25   -9999.25   -9999.25   -9999.25   -9999.25   -9999.25   -9999.25
 5674.00000    0.21080    1.21020    0.32300    3.01310    0.00000    1.12570    0.17030   33.00290    0.02930    0.01350    0.99830   56.00000   20.00000    4.00000   19.00000   11.00000   14.00000    7.00000   18.00000   13.00000    3.00000   19.00000    0.00000  265.00000   14.00000   32.00000    1.00000    0.00000    3.40000    3.00000    3.50000   63.70000    9.30000    5.60000    4.40000    3.90000    3.20000
 5674.33300    0.18590    0.58200    0.17690    2.26250    0.00000    0.74380    0.12370   35.56310    0.02080    0.01340    1.07100   60.00000   10.00000    4.00000   17.00000   16.00000    8.00000    5.00000   15.00000   13.00000    3.00000   17.00000    0.00000  265.00000   16.00000   24.00000    1.00000    0.00000   -9999.25   -9999.25   -9999.25   -9999.25   -9999.25   -9999.25   -9999.25   -9999.25   -9999.25
