~Version ---------------------------------------------------
VERS.   1.2 : CWLS LOG ASCII STANDARD - VERSION 1.2
WRAP.    NO : One line per depth step
DLM . SPACE : Column Data Section Delimiter
~Well ------------------------------------------------------
STRT.ft      5651.333 : START DEPTH
STOP.ft      5849.667 : STOP DEPTH
STEP.ft             1 : STEP
NULL.        -9999.25 : NULL VALUE
COMP.         COMPANY : 
WELL.            WELL : 
FLD .           FIELD : 
LOC .        LOCATION : 
PROV.        PROVINCE : 
CNTY.          COUNTY : 
STAT.           STATE : 
CTRY.         COUNTRY : 
SRVC. SERVICE COMPANY : 
DATE.            DATE : 2020-08-25 21:44:26.661423
UWI .  UNIQUE WELL ID : 
API .      API NUMBER : 
~Curve Information -----------------------------------------
Depth (ft).ft      : Depth in ft
%Na       .wt_pct  : XRF Sodium
%Mg       .wt_pct  : XRF Magnesium
%Al       .wt_pct  : XRF Aluminum
%Si       .wt_pct  : XRF Silicon
%P        .wt_pct  : XRF Phosphorus
%S        .wt_pct  : XRF Sulfur
%K        .wt_pct  : XRF Potassium
%Ca       .wt_pct  : XRF Calcium
%Ti       .wt_pct  : XRF Titanium
%Mn       .wt_pct  : XRF Manganese
%Fe       .wt_pct  : XRF Iron
V         .ppm     : XRF Vanadium
Cr        .ppm     : XRF Chromium
Co        .ppm     : XRF Cobalt
Ni        .ppm     : XRF Nickel
Cu        .ppm     : XRF Copper
Zn        .ppm     : XRF Zinc
Ga        .ppm     : XRF Gallium
As        .ppm     : XRF Arsenic
Pb        .ppm     : XRF Lead
Th        .ppm     : XRF Thorium
Rb        .ppm     : XRF Ribidium
U         .ppm     : XRF Uranium
Sr        .ppm     : XRF Strontium
Y         .ppm     : XRF Yttrium
Zr        .ppm     : XRF Zirconium
Nb        .ppm     : XRF Niobium
Mo        .ppm     : XRF Molybdenum
Quartz    .wt_pct  : XRD Quartz
Dolomite  .wt_pct  : XRD Dolomite
Illite    .wt_pct  : XRD Illite
Calcite   .wt_pct  : XRD Calcite
Gypsum    .wt_pct  : XRD Gypsum
Microcline.wt_pct  : XRD Microcline
Albite    .wt_pct  : XRD Albite
Pyrite    .wt_pct  : XRD Pyrite
Kaolinite .wt_pct  : XRD Kaolinite
~Params ----------------------------------------------------
~Other -----------------------------------------------------
~ASCII -----------------------------------------------------
# ...
 5708.00000    0.36310    1.46240    6.38400   26.03430    0.05900    0.74240    1.87850    8.11780    0.34900    0.02240    1.71750   16.00000  111.00000    6.00000   28.00000   14.00000   14.00000    8.00000   14.00000   12.00000    7.00000   90.00000    3.00000  195.00000   28.00000  241.00000   11.00000   13.00000   -9999.25   -9999.25   -9999.25   -9999.25   -9999.25   -9999.25   -9999.25   -9999.25   -9999.25
 5708.33300    0.33820    0.00000    0.44140    3.54960    0.00000    0.19580    0.31130   31.42300    0.03930    0.01430    0.79040   25.00000   21.00000    7.00000   20.00000   24.00000   17.00000    7.00000   12.00000   11.00000    5.00000   25.00000    4.00000 1854.00000    0.00000    9.00000    7.00000    0.00000    3.50000    5.20000    3.90000   69.00000    4.50000    3.20000    4.20000    4.20000    2.30000
 5708.66700    0.34850    1.73290    5.83590   20.18420    0.04230    1.36540    1.75220   11.81050    0.28190    0.01870    1.61350    1.00000   92.00000    6.00000   30.00000   16.00000   30.00000   11.00000   10.00000   12.00000    8.00000   96.00000    6.00000  208.00000   29.00000  228.00000   11.00000   13.00000   -9999.25   -9999.25   -9999.25   -9999.25   -9999.25   -9999.25   -9999.25   -9999.25   -9999.25
 5709.00000    0.37280    0.98200    6.71650   19.38700    0.02420    0.66170    2.19450   12.24940    0.32230    0.01890    1.51930    9.00000   94.00000    4.00000   42.00000   14.00000   31.00000   13.00000    1.00000    9.00000    9.00000  113.00000    4.00000  219.00000   27.00000  192.00000   11.00000   10.00000   16.30000    6.70000    4.10000   53.60000    7.40000    3.80000    1.70000    3.20000    3.30000
 5709.33300    0.31150    1.95580    6.34550   20.27540    0.06140    1.24550    1.90520   13.26100    0.28320    0.01830    1.89690    4.00000   98.00000    8.00000   32.00000   12.00000   23.00000   11.00000   10.00000   13.00000    8.00000   97.00000    7.00000  240.00000   28.00000  221.00000   10.00000    9.00000   -9999.25   -9999.25   -9999.25   -9999.25   -9999.25   -9999.25   -9999.25   -9999.25   -9999.25
 5709.66700    0.35730    0.95070    8.31890   23.64780    0.02900    1.23660    2.75590    6.67260    0.41990    0.02050    2.00460   30.00000   98.00000    8.00000   33.00000   11.00000   29.00000   15.00000    3.00000   11.00000   10.00000  135.00000    4.00000  183.00000   29.00000  207.00000   10.00000   10.00000   20.60000   10.80000    6.00000   40.40000    6.30000    4.80000    2.80000    4.90000    3.40000
 5710.00000    0.33370    1.55540    6.24610   18.48320    0.04740    1.12960    1.88590   13.59690    0.30840    0.01790    1.86800   17.00000   82.00000    6.00000   46.00000   14.00000   24.00000   11.00000    7.00000   11.00000    9.00000  111.00000    1.00000  256.00000   30.00000  212.00000   10.00000   10.00000   -9999.25   -9999.25   -9999.25   -9999.25   -9999.25   -9999.25   -9999.25   -9999.25   -9999.25
 5710.33300    0.33640    1.31460    8.53040   23.63530    0.04010    1.08250    2.92940    6.30090    0.43120    0.02030    2.01060   12.00000  112.00000    5.00000   30.00000   10.00000   30.00000   16.00000    4.00000   11.00000   11.00000  151.00000    2.00000  173.00000   28.00000  209.00000   11.00000    8.00000   25.80000   11.50000    6.50000   32.40000    7.80000    5.00000    3.40000    5.20000    2.30000
 5710.33300    0.40220    1.84920    6.49280   22.41230    0.04230    0.96470    2.09250   10.62650    0.30710    0.02010    1.82090    7.00000   93.00000    5.00000   32.00000   11.00000   22.00000   12.00000    7.00000   11.00000    8.00000  102.00000    7.00000  182.00000   31.00000  234.00000   11.00000   20.00000   -9999.25   -9999.25   -9999.25   -9999.25   -9999.25   -9999.25   -9999.25   -9999.25   -9999.25
 5710.66700    0.37410    1.21720    6.70710   22.44740    0.04570    0.71330    2.12330   11.26260    0.30730    0.02010    1.59950   35.00000  106.00000    5.00000   34.00000   13.00000   24.00000   13.00000    3.00000   10.00000    9.00000  112.00000    8.00000  198.00000   34.00000  232.00000   12.00000   16.00000   26.00000    9.70000    6.50000   34.70000    7.60000    5.00000    2.70000    5.20000    2.60000
 5710.66700    0.32820    1.77160    7.71440   20.90550    0.03610    1.43460    2.38070    9.67280    0.36920    0.01880    2.11600   36.00000   85.00000    5.00000   36.00000   13.00000   31.00000   14.00000    9.00000   13.00000    9.00000  116.00000    5.00000  193.00000   31.00000  213.00000    9.00000   12.00000   -9999.25   -9999.25   -9999.25   -9999.25   -9999.25   -9999.25   -9999.25   -9999.25   -9999.25
 5711.00000    0.41120    0.95720    6.85090   22.20230    0.07800    0.82390    2.18920    9.27520    0.34130    0.01950    1.67340    0.00000  103.00000    5.00000   32.00000   11.00000   19.00000   12.00000    5.00000   11.00000    9.00000  110.00000   12.00000  902.00000    8.00000  225.00000   12.00000    9.00000   -9999.25   -9999.25   -9999.25   -9999.25   -9999.25   -9999.25   -9999.25   -9999.25   -9999.25
 5711.00000    0.38040    1.24050    5.57620   22.33090    0.06080    0.75580    1.84490   10.87640    0.30750    0.02070    1.42700   19.00000  108.00000    6.00000   28.00000   15.00000   20.00000   10.00000    3.00000   10.00000    7.00000   89.00000    7.00000  313.00000   28.00000  263.00000   12.00000   13.00000   -9999.25   -9999.25   -9999.25   -9999.25   -9999.25   -9999.25   -9999.25   -9999.25   -9999.25
 5711.33300    0.37850    0.67150    6.60970   20.40530    0.39150    0.53160    2.16140   10.19480    0.29870    0.02120    1.38290   62.00000  111.00000    9.00000   75.00000   46.00000   63.00000   29.00000    7.00000   18.00000   16.00000  123.00000   91.00000 8300.00000    0.00000    9.00000   28.00000    0.00000   26.40000   10.90000    6.80000   31.10000    9.70000    6.00000    2.70000    3.10000    3.30000
 5711.33300    0.34980    1.27760    6.52470   22.81220    0.05200    0.88970    2.16860    9.54640    0.32000    0.02040    1.53380   27.00000  108.00000    4.00000   31.00000   11.00000   28.00000   14.00000    5.00000   11.00000    9.00000  112.00000    4.00000  251.00000   27.00000  243.00000   13.00000   12.00000   27.80000    9.40000    7.10000   29.50000   10.20000    5.20000    2.80000    3.40000    4.60000
 5711.66700    0.31590    1.59930    6.79790   20.47650    0.45390    0.61360    2.15930   11.23560    0.31990    0.02070    1.38120   35.00000  118.00000   10.00000   85.00000   58.00000   77.00000   34.00000   11.00000   31.00000   17.00000  112.00000  119.00000 11359.00000    0.00000    0.00000   31.00000    0.00000   -9999.25   -9999.25   -9999.25   -9999.25   -9999.25   -9999.25   -9999.25   -9999.25   -9999.25
 5711.66700    0.40270    0.78750    5.23490   26.00980    0.06590    1.09140    1.90550    7.88600    0.35470    0.02220    1.45800    0.00000  126.00000    8.00000   41.00000   13.00000   29.00000   13.00000    6.00000   11.00000    8.00000   94.00000    5.00000  739.00000   15.00000  335.00000   14.00000   22.00000   -9999.25   -9999.25   -9999.25   -9999.25   -9999.25   -9999.25   -9999.25   -9999.25   -9999.25
 5712.00000    0.34340    0.95770    5.43300   23.76390    0.68190    0.45020    1.70020    8.01640    0.29170    0.02250    1.18190   32.00000  121.00000   10.00000   72.00000   50.00000   65.00000   29.00000   12.00000   23.00000   14.00000   74.00000  122.00000 10772.00000    0.00000   64.00000   32.00000    0.00000   -9999.25   -9999.25   -9999.25   -9999.25   -9999.25   -9999.25   -9999.25   -9999.25   -9999.25
 5712.33300    0.33540    1.36930    5.24870   23.73550    0.80360    0.56290    1.62690    8.45780    0.28430    0.02310    1.26050   57.00000  134.00000    6.00000   72.00000   45.00000   58.00000   29.00000    6.00000   14.00000   14.00000   83.00000  110.00000 9534.00000    0.00000   91.00000   32.00000    0.00000   33.80000   10.10000    6.00000   27.80000    9.40000    5.20000    3.10000    2.30000    2.20000
 5712.66700    0.31120    1.66000    2.51130   19.03820    0.31610    1.94840    0.96150   14.80500    0.17910    0.02050    1.05420   60.00000   97.00000    7.00000   37.00000   29.00000   29.00000   12.00000    7.00000   11.00000    6.00000   39.00000   52.00000 4054.00000    0.00000  148.00000   17.00000    8.00000   -9999.25   -9999.25   -9999.25   -9999.25   -9999.25   -9999.25   -9999.25   -9999.25   -9999.25
