~Version ---------------------------------------------------
VERS.   1.2 : CWLS LOG ASCII STANDARD - VERSION 1.2
WRAP.    NO : One line per depth step
DLM . SPACE : Column Data Section Delimiter
~Well ------------------------------------------------------
STRT.ft      5651.333 : START DEPTH
STOP.ft      5849.667 : STOP DEPTH
STEP.ft             1 : STEP
NULL.        -9999.25 : NULL VALUE
COMP.         COMPANY : 
WELL.            WELL : 
FLD .           FIELD : 
LOC .        LOCATION : 
PROV.        PROVINCE : 
CNTY.          COUNTY : 
STAT.           STATE : 
CTRY.         COUNTRY : 
SRVC. SERVICE COMPANY : 
DATE.            DATE : 2020-08-25 21:44:26.661423
UWI .  UNIQUE WELL ID : 
API .      API NUMBER : 
~Curve Information -----------------------------------------
Depth (ft).ft      : Depth in ft
%Na       .wt_pct  : XRF Sodium
%Mg       .wt_pct  : XRF Magnesium
%Al       .wt_pct  : XRF Aluminum
%Si       .wt_pct  : XRF Silicon
%P        .wt_pct  : XRF Phosphorus
%S        .wt_pct  : XRF Sulfur
%K        .wt_pct  : XRF Potassium
%Ca       .wt_pct  : XRF Calcium
%Ti       .wt_pct  : XRF Titanium
%Mn       .wt_pct  : XRF Manganese
%Fe       .wt_pct  : XRF Iron
V         .ppm     : XRF Vanadium
Cr        .ppm     : XRF Chromium
Co        .ppm     : XRF Cobalt
Ni        .ppm     : XRF Nickel
Cu        .ppm     : XRF Copper
Zn        .ppm     : XRF Zinc
Ga        .ppm     : XRF Gallium
As        .ppm     : XRF Arsenic
Pb        .ppm     : XRF Lead
Th        .ppm     : XRF Thorium
Rb        .ppm     : XRF Ribidium
U         .ppm     : XRF Uranium
Sr        .ppm     : XRF Strontium
Y         .ppm     : XRF Yttrium
Zr        .ppm     : XRF Zirconium
Nb        .ppm     : XRF Niobium
Mo        .ppm     : XRF Molybdenum
Quartz    .wt_pct  : XRD Quartz
Dolomite  .wt_pct  : XRD Dolomite
Illite    .wt_pct  : XRD Illite
Calcite   .wt_pct  : XRD Calcite
Gypsum    .wt_pct  : XRD Gypsum
Microcline.wt_pct  : XRD Microcline
Albite    .wt_pct  : XRD Albite
Pyrite    .wt_pct  : XRD Pyrite
Kaolinite .wt_pct  : XRD Kaolinite
~Params ----------------------------------------------------
~Other -----------------------------------------------------
~ASCII -----------------------------------------------------
# ...
 5769.66700    0.41760    2.08480    1.91870    7.54810    0.00000    0.40550    0.62410   22.21100    0.11460    0.01470    2.13410   57.00000   43.00000    7.00000   13.00000    9.00000   11.00000    5.00000    5.00000   10.00000    4.00000   23.00000    8.00000  399.00000   13.00000   31.00000    3.00000    0.00000    3.20000    4.70000    3.30000   70.60000    5.20000    3.40000    2.50000    3.60000    3.50000
 5770.00000    0.15020    0.34400    0.61220    3.51700    0.00000    0.19330    0.26960   35.45390    0.04160    0.01420    0.75190   44.00000   14.00000    8.00000   21.00000   21.00000    9.00000    5.00000    8.00000    9.00000    4.00000   20.00000   19.00000 1367.00000    0.00000    0.00000    4.00000    0.00000   -9999.25   -9999.25   -9999.25   -9999.25   -9999.25   -9999.25   -9999.25   -9999.25   -9999.25
 5770.33300    0.31210    1.49890    7.39930   21.51980    0.08200    1.22460    2.00500   10.54820    0.38460    0.01900    2.11910   41.00000   99.00000    6.00000   46.00000   13.00000   30.00000   15.00000    4.00000   11.00000    9.00000  112.00000    7.00000  229.00000   31.00000  203.00000   10.00000   15.00000   -9999.25   -9999.25   -9999.25   -9999.25   -9999.25   -9999.25   -9999.25   -9999.25   -9999.25
 5770.66700    0.39920    3.94660    4.89440   15.32060    0.07650    0.96580    1.22270   14.40460    0.26800    0.01700    2.63060   54.00000   72.00000    7.00000   37.00000   12.00000   22.00000   11.00000   11.00000   12.00000    7.00000   85.00000    9.00000  236.00000   35.00000  147.00000   10.00000   13.00000   -9999.25   -9999.25   -9999.25   -9999.25   -9999.25   -9999.25   -9999.25   -9999.25   -9999.25
 5771.00000    0.37150    3.84700    5.24470   16.10580    0.06600    0.92330    1.30570   14.48870    0.31760    0.01760    2.68650   54.00000   67.00000    9.00000   36.00000   12.00000   24.00000    9.00000    8.00000   11.00000    7.00000   91.00000    0.00000  192.00000   34.00000  153.00000    8.00000    9.00000   -9999.25   -9999.25   -9999.25   -9999.25   -9999.25   -9999.25   -9999.25   -9999.25   -9999.25
 5771.33300    0.41230    5.43480    1.18560    5.91200    0.15710    0.45390    0.45760   23.62340    0.09580    0.01440    2.83080   95.00000   29.00000    8.00000   25.00000    8.00000   22.00000    4.00000    8.00000    9.00000    4.00000   34.00000    0.00000  191.00000   23.00000   41.00000    3.00000    1.00000    1.90000    5.30000    3.90000   69.40000    4.30000    3.20000    4.80000    4.20000    3.00000
 5771.66700    0.41730    5.54440    1.19920    5.88470    0.21130    0.31950    0.43970   24.23340    0.08870    0.01470    2.58910   82.00000   39.00000    5.00000   30.00000   12.00000   14.00000    4.00000    3.00000    8.00000    4.00000   37.00000    4.00000  202.00000   25.00000   55.00000    4.00000    0.00000   -9999.25   -9999.25   -9999.25   -9999.25   -9999.25   -9999.25   -9999.25   -9999.25   -9999.25
 5772.00000    0.18040    0.19050    0.48330    3.06170    0.00000    0.18830    0.24630   35.45870    0.03140    0.01400    0.77420   35.00000   18.00000    4.00000   11.00000   13.00000   15.00000    5.00000    6.00000    7.00000    4.00000   29.00000    0.00000  242.00000   19.00000   40.00000    3.00000    0.00000   -9999.25   -9999.25   -9999.25   -9999.25   -9999.25   -9999.25   -9999.25   -9999.25   -9999.25
 5772.33300    0.20750    0.84350    1.08110    3.99840    0.03810    0.42020    0.32100   33.31750    0.04140    0.01400    0.80030   35.00000   21.00000    7.00000   12.00000   14.00000    7.00000    4.00000    0.00000    5.00000    3.00000   25.00000    0.00000  251.00000   18.00000   30.00000    1.00000    0.00000   -9999.25   -9999.25   -9999.25   -9999.25   -9999.25   -9999.25   -9999.25   -9999.25   -9999.25
 5772.66700    0.27520    0.84180    0.89230    4.11680    0.02450    0.40760    0.35840   33.82920    0.05310    0.01380    0.93040   28.00000   19.00000    6.00000   21.00000   16.00000   15.00000    6.00000    6.00000    8.00000    3.00000   24.00000    0.00000  221.00000   18.00000   41.00000    3.00000    0.00000   -9999.25   -9999.25   -9999.25   -9999.25   -9999.25   -9999.25   -9999.25   -9999.25   -9999.25
 5773.00000    0.35960    3.85420    4.46730   11.84180    0.10450    1.20160    1.12340   18.46220    0.17560    0.01530    2.89880   65.00000   56.00000    5.00000   16.00000   15.00000   10.00000    5.00000    8.00000    9.00000    3.00000   24.00000    8.00000  291.00000   13.00000   31.00000    2.00000    0.00000   -9999.25   -9999.25   -9999.25   -9999.25   -9999.25   -9999.25   -9999.25   -9999.25   -9999.25
 5773.33300    0.16830    0.07910    0.43480    3.28360    0.00000    0.51050    0.23510   32.95150    0.03210    0.01330    0.98770   40.00000   11.00000    5.00000   14.00000   15.00000    5.00000    4.00000    6.00000    9.00000    3.00000   20.00000    0.00000  215.00000   14.00000   25.00000    2.00000    0.00000    2.10000    5.80000    3.80000   68.00000    5.30000    3.30000    4.10000    4.20000    3.40000
 5773.66700    0.16160    0.00000    0.95560    4.06660    0.00000    0.32030    0.30480   32.87520    0.04430    0.01380    0.84720   30.00000   21.00000    6.00000   15.00000   18.00000    9.00000    5.00000    2.00000    8.00000    3.00000   21.00000    0.00000  173.00000   17.00000   40.00000    1.00000    0.00000   -9999.25   -9999.25   -9999.25   -9999.25   -9999.25   -9999.25   -9999.25   -9999.25   -9999.25
 5774.00000    0.19910    0.37160    0.89290    3.68040    0.07600    0.24400    0.27970   34.99410    0.04290    0.01390    0.78160   43.00000   19.00000    8.00000   16.00000   22.00000   15.00000    8.00000    2.00000   10.00000    4.00000   19.00000   12.00000 1690.00000    0.00000    0.00000    5.00000    0.00000   -9999.25   -9999.25   -9999.25   -9999.25   -9999.25   -9999.25   -9999.25   -9999.25   -9999.25
 5774.33300    0.20940    0.00000    1.08360    4.37510    0.00000    0.35220    0.30680   33.07570    0.03930    0.01380    0.94250   37.00000   19.00000    5.00000   17.00000   15.00000   10.00000    4.00000    6.00000    9.00000    3.00000   20.00000    0.00000  151.00000   20.00000   33.00000    2.00000    0.00000   -9999.25   -9999.25   -9999.25   -9999.25   -9999.25   -9999.25   -9999.25   -9999.25   -9999.25
 5775.00000    0.19820    0.22050    0.60870    3.61670    0.00000    0.50690    0.28720   33.58420    0.03980    0.01360    1.01050   46.00000   16.00000    6.00000   12.00000   10.00000    7.00000    3.00000    3.00000    8.00000    3.00000   21.00000    0.00000  152.00000   14.00000   32.00000    1.00000    0.00000   -9999.25   -9999.25   -9999.25   -9999.25   -9999.25   -9999.25   -9999.25   -9999.25   -9999.25
 5775.33300    0.19450    0.00000    1.08710    4.15480    0.00000    0.24300    0.30430   33.36730    0.03870    0.01370    0.88660   26.00000   19.00000    6.00000   36.00000   11.00000   20.00000    8.00000    2.00000    9.00000    6.00000   64.00000    0.00000  206.00000   29.00000  111.00000    7.00000    7.00000    2.70000    3.40000    3.90000   70.60000    5.10000    4.10000    3.50000    4.20000    2.40000
 5775.66700    0.29940    3.05040    5.11660   16.67950    0.17410    1.60620    1.50630   13.49670    0.27450    0.01660    2.74970   35.00000   79.00000    7.00000   40.00000   12.00000   18.00000    9.00000   13.00000   13.00000    7.00000   86.00000    6.00000  218.00000   29.00000  142.00000    8.00000    8.00000   -9999.25   -9999.25   -9999.25   -9999.25   -9999.25   -9999.25   -9999.25   -9999.25   -9999.25
 5776.00000    0.23960    0.10230    1.40650    4.64430    0.01960    0.43650    0.36360   33.50800    0.04470    0.01380    0.82450   40.00000   24.00000    8.00000   11.00000   13.00000    9.00000    5.00000    0.00000    6.00000    4.00000   26.00000    0.00000  191.00000   19.00000   40.00000    2.00000    0.00000   -9999.25   -9999.25   -9999.25   -9999.25   -9999.25   -9999.25   -9999.25   -9999.25   -9999.25
 5776.33300    0.22440    0.14630    0.70000    3.50370    0.03210    0.21450    0.26880   34.52680    0.04600    0.01370    0.78610   30.00000   15.00000    7.00000   13.00000   10.00000   13.00000    4.00000    8.00000    9.00000    3.00000   26.00000    0.00000  286.00000   19.00000   44.00000    2.00000    1.00000   -9999.25   -9999.25   -9999.25   -9999.25   -9999.25   -9999.25   -9999.25   -9999.25   -9999.25
