~Version ---------------------------------------------------
VERS.   1.2 : CWLS LOG ASCII STANDARD - VERSION 1.2
WRAP.    NO : One line per depth step
DLM . SPACE : Column Data Section Delimiter
~Well ------------------------------------------------------
STRT.ft      5651.333 : START DEPTH
STOP.ft      5849.667 : STOP DEPTH
STEP.ft             1 : STEP
NULL.        -9999.25 : NULL VALUE
COMP.         COMPANY : 
WELL.            WELL : 
FLD .           FIELD : 
LOC .        LOCATION : 
PROV.        PROVINCE : 
CNTY.          COUNTY : 
STAT.           STATE : 
CTRY.         COUNTRY : 
SRVC. SERVICE COMPANY : 
DATE.            DATE : 2020-08-25 21:44:26.661423
UWI .  UNIQUE WELL ID : 
API .      API NUMBER : 
~Curve Information -----------------------------------------
Depth (ft).ft      : Depth in ft
%Na       .wt_pct  : XRF Sodium
%Mg       .wt_pct  : XRF Magnesium
%Al       .wt_pct  : XRF Aluminum
%Si       .wt_pct  : XRF Silicon
%P        .wt_pct  : XRF Phosphorus
%S        .wt_pct  : XRF Sulfur
%K        .wt_pct  : XRF Potassium
%Ca       .wt_pct  : XRF Calcium
%Ti       .wt_pct  : XRF Titanium
%Mn       .wt_pct  : XRF Manganese
%Fe       .wt_pct  : XRF Iron
V         .ppm     : XRF Vanadium
Cr        .ppm     : XRF Chromium
Co        .ppm     : XRF Cobalt
Ni        .ppm     : XRF Nickel
Cu        .ppm     : XRF Copper
Zn        .ppm     : XRF Zinc
Ga        .ppm     : XRF Gallium
As        .ppm     : XRF Arsenic
Pb        .ppm     : XRF Lead
Th        .ppm     : XRF Thorium
Rb        .ppm     : XRF Ribidium
U         .ppm     : XRF Uranium
Sr        .ppm     : XRF Strontium
Y         .ppm     : XRF Yttrium
Zr        .ppm     : XRF Zirconium
Nb        .ppm     : XRF Niobium
Mo        .ppm     : XRF Molybdenum
Quartz    .wt_pct  : XRD Quartz
Dolomite  .wt_pct  : XRD Dolomite
Illite    .wt_pct  : XRD Illite
Calcite   .wt_pct  : XRD Calcite
Gypsum    .wt_pct  : XRD Gypsum
Microcline.wt_pct  : XRD Microcline
Albite    .wt_pct  : XRD Albite
Pyrite    .wt_pct  : XRD Pyrite
Kaolinite .wt_pct  : XRD Kaolinite
~Params ----------------------------------------------------
~Other -----------------------------------------------------
~ASCII -----------------------------------------------------
# ...
 5756.00000    0.48010    7.02240    0.22140    2.33210    0.00000    0.37090    0.15000   29.73740    0.01830    0.01440    0.88870   57.00000   24.00000    7.00000    7.00000    9.00000    3.00000    1.00000    8.00000    7.00000    2.00000   12.00000    2.00000  205.00000    6.00000   18.00000    2.00000    2.00000   -9999.25   -9999.25   -9999.25   -9999.25   -9999.25   -9999.25   -9999.25   -9999.25   -9999.25
 5756.33300    0.45780    6.60470    0.22230    2.39630    0.00000    0.27560    0.15220   28.78390    0.02350    0.01440    0.89000   56.00000   23.00000    6.00000   10.00000    9.00000    0.00000    1.00000    2.00000    6.00000    2.00000   11.00000    0.00000  218.00000    5.00000   15.00000    2.00000    0.00000    1.50000   31.70000    3.00000   41.10000    4.40000    4.40000    4.60000    5.40000    3.80000
 5756.66700    0.41280    5.40280    0.15870    2.33120    0.00000    0.23100    0.13900   29.36400    0.01510    0.01420    0.92690   61.00000   17.00000    6.00000    5.00000   13.00000    2.00000    2.00000    6.00000    7.00000    2.00000    9.00000    8.00000  210.00000    4.00000   11.00000    0.00000    0.00000   -9999.25   -9999.25   -9999.25   -9999.25   -9999.25   -9999.25   -9999.25   -9999.25   -9999.25
 5757.00000    0.45360    6.55250    0.22600    2.19250    0.00000    0.84580    0.12460   29.29960    0.02290    0.01420    0.85860   77.00000   24.00000    5.00000    7.00000   11.00000    0.00000    3.00000    6.00000    8.00000    2.00000   16.00000    8.00000  259.00000    6.00000   25.00000    2.00000    2.00000   -9999.25   -9999.25   -9999.25   -9999.25   -9999.25   -9999.25   -9999.25   -9999.25   -9999.25
 5757.33300    0.60070    9.78770    0.15310    2.41430    0.00000    0.21800    0.13310   25.51600    0.02220    0.01540    0.84410   85.00000   40.00000    6.00000    9.00000    6.00000    0.00000    1.00000    0.00000    2.00000    2.00000   12.00000    0.00000  192.00000    7.00000   17.00000    2.00000    0.00000   -9999.25   -9999.25   -9999.25   -9999.25   -9999.25   -9999.25   -9999.25   -9999.25   -9999.25
 5757.66700    0.56810    9.71390    0.08260    2.23270    0.00000    1.36300    0.10710   24.01390    0.01990    0.01560    0.71920   81.00000   41.00000    7.00000    0.00000    6.00000    0.00000    1.00000    2.00000    7.00000    2.00000   13.00000    0.00000  224.00000    4.00000   14.00000    1.00000    0.00000   -9999.25   -9999.25   -9999.25   -9999.25   -9999.25   -9999.25   -9999.25   -9999.25   -9999.25
 5758.33300    0.55350   10.65130    0.17930    2.28020    0.00000    0.40550    0.13680   25.59710    0.02880    0.01530    0.80130   92.00000   38.00000    5.00000    3.00000    7.00000    0.00000    0.00000    0.00000    5.00000    2.00000   10.00000    1.00000  218.00000    2.00000   11.00000    2.00000    3.00000    1.80000   55.70000    2.70000   23.40000    4.10000    2.30000    3.00000    3.60000    3.40000
 5758.66700    0.60450    9.50250    0.20760    2.39440    0.00000    0.29810    0.15020   25.13220    0.01930    0.01510    0.89280   71.00000   34.00000    6.00000    2.00000    3.00000    5.00000    3.00000    3.00000    6.00000    2.00000   13.00000    0.00000  201.00000    6.00000   15.00000    2.00000    1.00000   -9999.25   -9999.25   -9999.25   -9999.25   -9999.25   -9999.25   -9999.25   -9999.25   -9999.25
 5759.00000    0.43600    6.16470    0.08870    2.22130    0.00000    0.22210    0.14210   30.66720    0.02680    0.01430    0.88520   67.00000   25.00000    6.00000   11.00000   10.00000    3.00000    4.00000    3.00000    6.00000    2.00000    9.00000    2.00000  220.00000   10.00000   15.00000    1.00000    0.00000   -9999.25   -9999.25   -9999.25   -9999.25   -9999.25   -9999.25   -9999.25   -9999.25   -9999.25
 5759.33300    0.33570    3.98710    0.28370    2.43310    0.00000    0.21300    0.16790   32.34760    0.02030    0.01370    0.89030   40.00000   19.00000    6.00000    6.00000   11.00000   10.00000    3.00000    6.00000    7.00000    3.00000   11.00000    3.00000  251.00000   13.00000   18.00000    1.00000   14.00000   -9999.25   -9999.25   -9999.25   -9999.25   -9999.25   -9999.25   -9999.25   -9999.25   -9999.25
 5759.66700    0.27090    3.08560    0.27410    2.31230    0.00000    0.16670    0.15940   33.59440    0.02120    0.01360    0.87090   48.00000   16.00000    7.00000   15.00000   11.00000   15.00000    4.00000    5.00000    7.00000    3.00000   14.00000    0.00000  250.00000    4.00000   20.00000    2.00000    0.00000   -9999.25   -9999.25   -9999.25   -9999.25   -9999.25   -9999.25   -9999.25   -9999.25   -9999.25
 5760.00000    0.63960   10.87240    0.17480    2.45730    0.00000    0.43930    0.11910   23.67130    0.02340    0.01540    0.97330  104.00000   43.00000    5.00000    4.00000    4.00000    0.00000    2.00000    0.00000    6.00000    2.00000    9.00000    6.00000  203.00000    4.00000   21.00000    0.00000    6.00000   -9999.25   -9999.25   -9999.25   -9999.25   -9999.25   -9999.25   -9999.25   -9999.25   -9999.25
 5760.33300    0.56090    9.05970    0.23470    2.80530    0.00000    0.57150    0.18080   22.87010    0.02980    0.01530    0.99970   66.00000   38.00000    5.00000    3.00000    8.00000    3.00000    2.00000    1.00000    5.00000    2.00000   17.00000    6.00000  188.00000   14.00000   30.00000    3.00000    1.00000    2.00000   57.60000    2.80000   19.30000    3.80000    3.50000    3.10000    4.90000    3.10000
 5760.66700    0.64530   11.37770    0.10290    2.84660    0.00000    0.70420    0.16630   22.26660    0.03360    0.01600    0.76590   94.00000   52.00000    5.00000    4.00000    8.00000    0.00000    2.00000    0.00000    3.00000    2.00000   13.00000    2.00000  307.00000    4.00000   22.00000    2.00000    2.00000   -9999.25   -9999.25   -9999.25   -9999.25   -9999.25   -9999.25   -9999.25   -9999.25   -9999.25
 5761.00000    0.63360   12.13520    0.24140    2.63020    0.00000    0.75130    0.22300   21.75600    0.03330    0.01610    0.78340   96.00000   49.00000    7.00000    6.00000    6.00000    0.00000    0.00000    0.00000    5.00000    2.00000   15.00000    2.00000  365.00000    1.00000   11.00000    1.00000    0.00000   -9999.25   -9999.25   -9999.25   -9999.25   -9999.25   -9999.25   -9999.25   -9999.25   -9999.25
 5761.33300    0.62580   10.61320    0.45320    3.88470    0.00000    0.55750    0.19380   20.65150    0.04830    0.01620    0.79360   74.00000   53.00000    6.00000    9.00000    4.00000    0.00000    1.00000    2.00000    7.00000    2.00000   17.00000    8.00000  418.00000    5.00000   55.00000    4.00000    2.00000   -9999.25   -9999.25   -9999.25   -9999.25   -9999.25   -9999.25   -9999.25   -9999.25   -9999.25
 5761.66700    0.56510   11.03660    0.37710    3.47760    0.00000    0.45610    0.21290   21.23300    0.03850    0.01610    0.89710   90.00000   54.00000    5.00000    0.00000    2.00000    1.00000    3.00000    0.00000    5.00000    2.00000   17.00000    3.00000  382.00000    1.00000   25.00000    4.00000    4.00000   -9999.25   -9999.25   -9999.25   -9999.25   -9999.25   -9999.25   -9999.25   -9999.25   -9999.25
 5762.00000    0.60000   10.47390    0.47820    3.60950    0.00000    0.90780    0.31250   20.10130    0.04750    0.01590    1.18620   93.00000   53.00000    6.00000    6.00000    7.00000    4.00000    3.00000    2.00000    7.00000    2.00000   17.00000    0.00000  270.00000    6.00000   23.00000    3.00000    0.00000   -9999.25   -9999.25   -9999.25   -9999.25   -9999.25   -9999.25   -9999.25   -9999.25   -9999.25
 5762.33300    0.54430    9.86120    0.53240    3.44330    0.00000    0.43320    0.25420   21.30340    0.04370    0.01590    1.05550   96.00000   50.00000    4.00000    2.00000    4.00000    4.00000    3.00000    2.00000    6.00000    2.00000   19.00000    0.00000  235.00000    3.00000   29.00000    3.00000    4.00000   -9999.25   -9999.25   -9999.25   -9999.25   -9999.25   -9999.25   -9999.25   -9999.25   -9999.25
 5762.66700    0.47620    9.98640    0.88290    3.98560    0.00000    0.46160    0.43780   20.04220    0.06030    0.01620    0.99500   83.00000   54.00000    6.00000    4.00000    3.00000    5.00000    4.00000    4.00000    7.00000    3.00000   26.00000    2.00000  572.00000    1.00000   17.00000    4.00000    4.00000   -9999.25   -9999.25   -9999.25   -9999.25   -9999.25   -9999.25   -9999.25   -9999.25   -9999.25
