~Version ---------------------------------------------------
VERS.   1.2 : CWLS LOG ASCII STANDARD - VERSION 1.2
WRAP.    NO : One line per depth step
DLM . SPACE : Column Data Section Delimiter
~Well ------------------------------------------------------
STRT.ft      5651.333 : START DEPTH
STOP.ft      5849.667 : STOP DEPTH
STEP.ft             1 : STEP
NULL.        -9999.25 : NULL VALUE
COMP.         COMPANY : 
WELL.            WELL : 
FLD .           FIELD : 
LOC .        LOCATION : 
PROV.        PROVINCE : 
CNTY.          COUNTY : 
STAT.           STATE : 
CTRY.         COUNTRY : 
SRVC. SERVICE COMPANY : 
DATE.            DATE : 2020-08-25 21:44:26.661423
UWI .  UNIQUE WELL ID : 
API .      API NUMBER : 
~Curve Information -----------------------------------------
Depth (ft).ft      : Depth in ft
%Na       .wt_pct  : XRF Sodium
%Mg       .wt_pct  : XRF Magnesium
%Al       .wt_pct  : XRF Aluminum
%Si       .wt_pct  : XRF Silicon
%P        .wt_pct  : XRF Phosphorus
%S        .wt_pct  : XRF Sulfur
%K        .wt_pct  : XRF Potassium
%Ca       .wt_pct  : XRF Calcium
%Ti       .wt_pct  : XRF Titanium
%Mn       .wt_pct  : XRF Manganese
%Fe       .wt_pct  : XRF Iron
V         .ppm     : XRF Vanadium
Cr        .ppm     : XRF Chromium
Co        .ppm     : XRF Cobalt
Ni        .ppm     : XRF Nickel
Cu        .ppm     : XRF Copper
Zn        .ppm     : XRF Zinc
Ga        .ppm     : XRF Gallium
As        .ppm     : XRF Arsenic
Pb        .ppm     : XRF Lead
Th        .ppm     : XRF Thorium
Rb        .ppm     : XRF Ribidium
U         .ppm     : XRF Uranium
Sr        .ppm     : XRF Strontium
Y         .ppm     : XRF Yttrium
Zr        .ppm     : XRF Zirconium
Nb        .ppm     : XRF Niobium
Mo        .ppm     : XRF Molybdenum
Quartz    .wt_pct  : XRD Quartz
Dolomite  .wt_pct  : XRD Dolomite
Illite    .wt_pct  : XRD Illite
Calcite   .wt_pct  : XRD Calcite
Gypsum    .wt_pct  : XRD Gypsum
Microcline.wt_pct  : XRD Microcline
Albite    .wt_pct  : XRD Albite
Pyrite    .wt_pct  : XRD Pyrite
Kaolinite .wt_pct  : XRD Kaolinite
~Params ----------------------------------------------------
~Other -----------------------------------------------------
~ASCII -----------------------------------------------------
# ...
 5799.00000    0.24100    0.00000    0.17540    2.78910    0.00000    0.17010    0.20010   36.18110    0.03210    0.01350    0.77770   36.00000   14.00000    7.00000   16.00000   13.00000   32.00000    8.00000    1.00000    9.00000    3.00000   20.00000    0.00000  172.00000   14.00000   24.00000    2.00000    0.00000   -9999.25   -9999.25   -9999.25   -9999.25   -9999.25   -9999.25   -9999.25   -9999.25   -9999.25
 5799.33300    0.38320    2.60580    2.92050   12.40050    0.24970    1.00160    1.04520   18.32160    0.15870    0.01550    2.67670   70.00000   66.00000   11.00000   31.00000   11.00000   30.00000    7.00000    1.00000    4.00000    5.00000   63.00000    1.00000  185.00000   26.00000   76.00000    4.00000    9.00000   -9999.25   -9999.25   -9999.25   -9999.25   -9999.25   -9999.25   -9999.25   -9999.25   -9999.25
 5799.66700    0.33800    3.21980    2.29990   11.47950    0.30820    0.91580    0.90760   19.59220    0.13330    0.01470    2.47750   69.00000   56.00000    3.00000   19.00000   17.00000   20.00000    3.00000    1.00000    7.00000    4.00000   33.00000    0.00000  192.00000   21.00000   45.00000    3.00000    0.00000    2.90000    3.80000    4.30000   66.20000    5.50000    3.70000    5.20000    3.90000    4.40000
 5800.00000    0.35030    3.24120    2.94840   14.61750    0.42410    0.86980    1.08660   18.23070    0.17110    0.01570    2.44740   74.00000   63.00000    6.00000   27.00000   16.00000   34.00000    7.00000    2.00000    8.00000    5.00000   56.00000    0.00000  233.00000   29.00000   81.00000    4.00000    0.00000   -9999.25   -9999.25   -9999.25   -9999.25   -9999.25   -9999.25   -9999.25   -9999.25   -9999.25
 5800.33300    0.40430    3.73300    4.33690   16.92140    0.32360    0.88910    1.63680   14.38260    0.24870    0.01770    2.51540   54.00000   94.00000    2.00000   49.00000   17.00000  110.00000   12.00000    5.00000   11.00000    7.00000   77.00000   22.00000 1020.00000    8.00000   88.00000    8.00000    5.00000   -9999.25   -9999.25   -9999.25   -9999.25   -9999.25   -9999.25   -9999.25   -9999.25   -9999.25
 5800.66700    0.25340    0.00000    0.19830    3.41140    0.03140    0.23080    0.19750   34.70360    0.02930    0.01350    0.82470   39.00000   13.00000    8.00000   19.00000   14.00000   12.00000    6.00000    4.00000    8.00000    3.00000   18.00000    0.00000  674.00000    7.00000    8.00000    3.00000    0.00000   -9999.25   -9999.25   -9999.25   -9999.25   -9999.25   -9999.25   -9999.25   -9999.25   -9999.25
 5801.00000    0.39580    3.28040    3.17300   17.70470    0.17210    1.26640    0.86250   14.43860    0.16200    0.01870    2.35770   84.00000   94.00000    7.00000   26.00000   14.00000   65.00000    8.00000    1.00000    6.00000    5.00000   53.00000    0.00000  187.00000   29.00000  118.00000    6.00000    6.00000   -9999.25   -9999.25   -9999.25   -9999.25   -9999.25   -9999.25   -9999.25   -9999.25   -9999.25
 5801.33300    0.40320    2.42080    4.16620   21.61250    0.05540    1.32250    1.32930    9.44120    0.23320    0.01960    2.52870   65.00000  105.00000    7.00000   30.00000    9.00000   49.00000    5.00000    1.00000    6.00000    4.00000   50.00000    4.00000  178.00000   27.00000  151.00000    6.00000   13.00000   -9999.25   -9999.25   -9999.25   -9999.25   -9999.25   -9999.25   -9999.25   -9999.25   -9999.25
 5801.66700    0.30520    1.44620    5.37700   23.37630    0.15270    1.21000    2.08170    9.66480    0.30700    0.01900    2.36200   63.00000  110.00000    7.00000   39.00000   11.00000   43.00000   11.00000    2.00000    8.00000    8.00000  106.00000    2.00000  185.00000   26.00000  134.00000    7.00000   12.00000   19.30000   16.60000    7.10000   30.30000    7.70000    6.60000    3.30000    5.40000    3.70000
 5802.00000    0.23130    0.00000    0.48280    4.77390    0.06840    0.28490    0.24390   34.42120    0.03370    0.01390    0.82040   42.00000   23.00000    7.00000   22.00000   17.00000   15.00000    5.00000    3.00000    7.00000    3.00000   16.00000   13.00000  742.00000    2.00000    5.00000    2.00000    0.00000   -9999.25   -9999.25   -9999.25   -9999.25   -9999.25   -9999.25   -9999.25   -9999.25   -9999.25
 5802.33300    0.24800    0.00000    0.40740    5.07680    0.10460    0.33640    0.25950   33.40010    0.03430    0.01400    0.85360   39.00000   24.00000    8.00000   15.00000   12.00000   15.00000    5.00000    2.00000    9.00000    4.00000   19.00000    0.00000  974.00000    0.00000    9.00000    2.00000    0.00000   -9999.25   -9999.25   -9999.25   -9999.25   -9999.25   -9999.25   -9999.25   -9999.25   -9999.25
 5802.66700    0.31790    1.60620    4.56690   16.84800    0.48200    1.31810    1.54730   15.68050    0.25040    0.01650    1.97920   51.00000  102.00000    5.00000   58.00000   30.00000  121.00000   17.00000    2.00000   11.00000    8.00000   67.00000   38.00000 2649.00000    0.00000   51.00000   10.00000    0.00000   -9999.25   -9999.25   -9999.25   -9999.25   -9999.25   -9999.25   -9999.25   -9999.25   -9999.25
 5803.00000    0.31730    1.61760    4.74080   17.54610    0.42530    1.21400    1.78620   14.29580    0.25680    0.01680    2.27500   62.00000   96.00000    5.00000   57.00000   32.00000  268.00000   15.00000    2.00000    9.00000    8.00000   95.00000   21.00000 1416.00000    0.00000   58.00000    9.00000    5.00000   -9999.25   -9999.25   -9999.25   -9999.25   -9999.25   -9999.25   -9999.25   -9999.25   -9999.25
 5803.33300    0.37460    1.74050    4.02920   17.91570    0.26540    1.34730    1.63080   12.66970    0.25120    0.01790    2.41140   68.00000  102.00000    7.00000   46.00000   16.00000   72.00000   10.00000    1.00000    8.00000    7.00000   88.00000    7.00000  219.00000   29.00000   89.00000    8.00000    3.00000   27.90000   14.60000    6.10000   29.60000    8.10000    3.20000    2.40000    5.30000    2.80000
 5803.66700    0.38940    2.98050    4.87950   18.55740    0.21400    1.08960    1.86870   12.51450    0.26850    0.01800    2.65590   58.00000   87.00000    4.00000   40.00000   17.00000   70.00000   10.00000    5.00000   10.00000    8.00000   99.00000    7.00000  257.00000   26.00000   91.00000    7.00000    6.00000   -9999.25   -9999.25   -9999.25   -9999.25   -9999.25   -9999.25   -9999.25   -9999.25   -9999.25
 5804.00000    0.36620    3.68980    4.20920   16.64530    0.20140    1.05470    1.58120   13.92000    0.22900    0.01670    2.59190   69.00000   94.00000   12.00000   37.00000   14.00000  210.00000    8.00000    0.00000    6.00000    6.00000   76.00000    9.00000  234.00000   28.00000  102.00000    7.00000   11.00000   -9999.25   -9999.25   -9999.25   -9999.25   -9999.25   -9999.25   -9999.25   -9999.25   -9999.25
 5804.33300    0.38940    2.86080    5.62370   19.13560    0.27580    0.94340    2.11520   11.06640    0.30630    0.01750    2.83610   15.00000  112.00000    9.00000   47.00000   18.00000   52.00000    8.00000    3.00000    9.00000    9.00000  108.00000    1.00000  193.00000   34.00000  109.00000    7.00000    3.00000   -9999.25   -9999.25   -9999.25   -9999.25   -9999.25   -9999.25   -9999.25   -9999.25   -9999.25
 5804.66700    0.40880    2.10780    5.78440   20.28820    0.35570    0.69220    2.23570   10.17340    0.33180    0.01810    2.83890   55.00000  115.00000    7.00000   47.00000   16.00000   36.00000   10.00000   13.00000   14.00000    9.00000  122.00000    0.00000  191.00000   36.00000  114.00000    9.00000   15.00000   -9999.25   -9999.25   -9999.25   -9999.25   -9999.25   -9999.25   -9999.25   -9999.25   -9999.25
 5805.00000    0.39120    2.70190    5.71460   19.79810    0.17830    0.76170    2.19060   10.28870    0.29300    0.01850    2.98410   80.00000   98.00000    9.00000   49.00000   14.00000   65.00000   11.00000    2.00000    9.00000    9.00000  115.00000    2.00000  181.00000   34.00000  115.00000    8.00000    7.00000   19.30000   23.10000   10.50000   18.20000   10.40000    6.60000    3.30000    5.40000    3.10000
 5806.33300    0.39360    2.16640    6.73060   21.53090    0.18810    1.04490    2.49490    9.00020    0.33120    0.01900    2.74560   36.00000  119.00000    6.00000   47.00000   17.00000   94.00000   13.00000    0.00000    7.00000   10.00000  127.00000    5.00000  190.00000   31.00000  129.00000    8.00000    8.00000   -9999.25   -9999.25   -9999.25   -9999.25   -9999.25   -9999.25   -9999.25   -9999.25   -9999.25
