~Version ---------------------------------------------------
VERS.   1.2 : CWLS LOG ASCII STANDARD - VERSION 1.2
WRAP.    NO : One line per depth step
DLM . SPACE : Column Data Section Delimiter
~Well ------------------------------------------------------
STRT.ft      5651.333 : START DEPTH
STOP.ft      5849.667 : STOP DEPTH
STEP.ft             1 : STEP
NULL.        -9999.25 : NULL VALUE
COMP.         COMPANY : 
WELL.            WELL : 
FLD .           FIELD : 
LOC .        LOCATION : 
PROV.        PROVINCE : 
CNTY.          COUNTY : 
STAT.           STATE : 
CTRY.         COUNTRY : 
SRVC. SERVICE COMPANY : 
DATE.            DATE : 2020-08-25 21:44:26.661423
UWI .  UNIQUE WELL ID : 
API .      API NUMBER : 
~Curve Information -----------------------------------------
Depth (ft).ft      : Depth in ft
%Na       .wt_pct  : XRF Sodium
%Mg       .wt_pct  : XRF Magnesium
%Al       .wt_pct  : XRF Aluminum
%Si       .wt_pct  : XRF Silicon
%P        .wt_pct  : XRF Phosphorus
%S        .wt_pct  : XRF Sulfur
%K        .wt_pct  : XRF Potassium
%Ca       .wt_pct  : XRF Calcium
%Ti       .wt_pct  : XRF Titanium
%Mn       .wt_pct  : XRF Manganese
%Fe       .wt_pct  : XRF Iron
V         .ppm     : XRF Vanadium
Cr        .ppm     : XRF Chromium
Co        .ppm     : XRF Cobalt
Ni        .ppm     : XRF Nickel
Cu        .ppm     : XRF Copper
Zn        .ppm     : XRF Zinc
Ga        .ppm     : XRF Gallium
As        .ppm     : XRF Arsenic
Pb        .ppm     : XRF Lead
Th        .ppm     : XRF Thorium
Rb        .ppm     : XRF Ribidium
U         .ppm     : XRF Uranium
Sr        .ppm     : XRF Strontium
Y         .ppm     : XRF Yttrium
Zr        .ppm     : XRF Zirconium
Nb        .ppm     : XRF Niobium
Mo        .ppm     : XRF Molybdenum
Quartz    .wt_pct  : XRD Quartz
Dolomite  .wt_pct  : XRD Dolomite
Illite    .wt_pct  : XRD Illite
Calcite   .wt_pct  : XRD Calcite
Gypsum    .wt_pct  : XRD Gypsum
Microcline.wt_pct  : XRD Microcline
Albite    .wt_pct  : XRD Albite
Pyrite    .wt_pct  : XRD Pyrite
Kaolinite .wt_pct  : XRD Kaolinite
~Params ----------------------------------------------------
~Other -----------------------------------------------------
~ASCII -----------------------------------------------------
# ...
 5682.00000    0.18950    0.30240    0.46130    2.78070    0.00000    1.55410    0.17400   32.40640    0.02960    0.01340    1.01280   42.00000   11.00000    3.00000   23.00000   16.00000   14.00000    3.00000    9.00000   10.00000    3.00000   14.00000    1.00000  300.00000   15.00000   28.00000    1.00000    0.00000   -9999.25   -9999.25   -9999.25   -9999.25   -9999.25   -9999.25   -9999.25   -9999.25   -9999.25
 5682.33300    0.18430    0.36620    0.45080    3.39010    0.00000    1.40040    0.18790   32.89680    0.03740    0.01360    1.00340   34.00000   17.00000    6.00000   22.00000   15.00000   12.00000    3.00000    9.00000   10.00000    3.00000   21.00000    1.00000  248.00000   17.00000   29.00000    1.00000    2.00000   -9999.25   -9999.25   -9999.25   -9999.25   -9999.25   -9999.25   -9999.25   -9999.25   -9999.25
 5682.66700    0.16130    0.94340    0.38040    3.06650    0.00000    1.15620    0.15440   32.17790    0.03520    0.01350    1.07320   39.00000   16.00000    6.00000   15.00000   15.00000   18.00000    4.00000    9.00000   11.00000    3.00000   19.00000    0.00000  366.00000   14.00000   28.00000    1.00000    3.00000   -9999.25   -9999.25   -9999.25   -9999.25   -9999.25   -9999.25   -9999.25   -9999.25   -9999.25
 5683.00000    0.17370    0.21040    0.33390    2.50700    0.00000    0.50300    0.15200   34.23710    0.02370    0.01330    1.02760   36.00000    9.00000    6.00000   20.00000   20.00000   16.00000    7.00000    5.00000    8.00000    4.00000   16.00000    0.00000  759.00000    3.00000   17.00000    3.00000    0.00000    1.80000    5.50000    6.60000   64.20000    5.10000    6.30000    3.40000    3.90000    3.30000
 5683.33300    0.17610    0.67450    0.44530    3.00870    0.00000    1.15300    0.18630   33.13080    0.03160    0.01300    1.22560   40.00000   10.00000    2.00000   29.00000   15.00000   10.00000    4.00000   27.00000   18.00000    3.00000   17.00000    0.00000  319.00000   19.00000   35.00000    2.00000    0.00000   -9999.25   -9999.25   -9999.25   -9999.25   -9999.25   -9999.25   -9999.25   -9999.25   -9999.25
 5683.66700    0.18020    0.48540    0.52070    3.20180    0.00000    0.91610    0.18250   33.28940    0.03160    0.01390    0.99970   31.00000   22.00000    3.00000   18.00000   17.00000   13.00000    5.00000   22.00000   16.00000    4.00000   22.00000    0.00000  289.00000   15.00000   37.00000    3.00000    0.00000   -9999.25   -9999.25   -9999.25   -9999.25   -9999.25   -9999.25   -9999.25   -9999.25   -9999.25
 5684.33300    0.21160    0.75570    0.22150    2.52440    0.00000    0.59800    0.15310   35.52900    0.01460    0.01390    0.90570   45.00000   14.00000    6.00000   20.00000   22.00000    4.00000    2.00000   14.00000   11.00000    3.00000   18.00000    2.00000  272.00000   10.00000   24.00000    0.00000    0.00000   -9999.25   -9999.25   -9999.25   -9999.25   -9999.25   -9999.25   -9999.25   -9999.25   -9999.25
 5684.66700    0.27250    0.36430    2.06930    7.12250    0.00000    2.20030    0.58590   22.93950    0.14320    0.01360    1.76780   46.00000   28.00000    4.00000   28.00000   17.00000   25.00000   10.00000   33.00000   19.00000    5.00000   53.00000    3.00000  301.00000   21.00000   80.00000    5.00000    4.00000    3.00000    4.00000    3.20000   69.20000    5.80000    3.40000    2.40000    5.70000    3.40000
 5685.00000    0.17760    1.07370    0.40390    2.66300    0.00000    0.79830    0.16420   34.95880    0.02660    0.01300    1.12710   46.00000    8.00000    5.00000   17.00000   16.00000    7.00000    4.00000   18.00000   13.00000    3.00000   18.00000    0.00000  240.00000   19.00000   28.00000    2.00000    0.00000   -9999.25   -9999.25   -9999.25   -9999.25   -9999.25   -9999.25   -9999.25   -9999.25   -9999.25
 5685.33300    0.20800    1.48040    0.45010    2.61340    0.00000    1.51640    0.16490   34.19870    0.03810    0.01340    1.19860   53.00000   10.00000    6.00000   21.00000   13.00000    7.00000    5.00000   23.00000   14.00000    3.00000   20.00000    0.00000  214.00000   24.00000   30.00000    2.00000    0.00000   -9999.25   -9999.25   -9999.25   -9999.25   -9999.25   -9999.25   -9999.25   -9999.25   -9999.25
 5685.66700    0.18700    0.15600    0.24410    2.52890    0.00000    1.51620    0.15170   32.97270    0.03180    0.01260    1.34710   43.00000   15.00000    5.00000   22.00000   10.00000   16.00000    6.00000   35.00000   19.00000    3.00000   20.00000    6.00000  268.00000   17.00000   28.00000    3.00000    2.00000   -9999.25   -9999.25   -9999.25   -9999.25   -9999.25   -9999.25   -9999.25   -9999.25   -9999.25
 5686.00000    0.29560    0.00000    0.04760    2.43000    0.00000    1.43230    0.10140   29.39990    0.01200    0.01200    1.47160   37.00000    0.00000    1.00000   27.00000   18.00000   18.00000    6.00000   26.00000   13.00000    3.00000   18.00000    0.00000  232.00000   20.00000   27.00000    2.00000    0.00000    1.80000    4.90000    4.20000   64.80000    6.60000    5.70000    2.80000    4.60000    4.40000
 5686.33300    0.15260    0.61550    0.20260    2.39600    0.00000    0.61140    0.15590   36.35370    0.02440    0.01350    1.07520   62.00000   12.00000    6.00000   19.00000   20.00000   16.00000    2.00000   10.00000    9.00000    3.00000   19.00000    0.00000  245.00000   24.00000   21.00000    2.00000    0.00000   -9999.25   -9999.25   -9999.25   -9999.25   -9999.25   -9999.25   -9999.25   -9999.25   -9999.25
 5686.66700    0.18170    0.10920    0.63390    3.23920    0.00000    0.43530    0.22830   34.51800    0.03950    0.01350    0.97680   43.00000   17.00000    6.00000   16.00000   15.00000   12.00000    4.00000   10.00000   10.00000    3.00000   22.00000    0.00000  232.00000   19.00000   37.00000    0.00000    0.00000   -9999.25   -9999.25   -9999.25   -9999.25   -9999.25   -9999.25   -9999.25   -9999.25   -9999.25
 5687.00000    0.15480    0.81740    0.65880    3.31360    0.01940    0.97680    0.25550   34.06160    0.04670    0.01340    1.19130   43.00000   17.00000    6.00000   20.00000   16.00000   18.00000    5.00000   20.00000   15.00000    4.00000   21.00000    0.00000  232.00000   25.00000   32.00000    2.00000    0.00000   -9999.25   -9999.25   -9999.25   -9999.25   -9999.25   -9999.25   -9999.25   -9999.25   -9999.25
 5687.33300    0.16960    0.27490    0.52880    2.98450    0.00000    0.75990    0.22370   34.94300    0.03760    0.01350    1.10150   47.00000   17.00000    5.00000   18.00000   18.00000    8.00000    6.00000   21.00000   15.00000    3.00000   18.00000    5.00000  230.00000   23.00000   28.00000    2.00000    0.00000    3.40000    5.70000    4.30000   66.80000    6.10000    3.90000    3.50000    4.00000    2.30000
 5687.66700    0.15540    0.94390    0.31730    2.77470    0.00000    0.45360    0.18620   36.11300    0.02950    0.01340    1.12280   44.00000   19.00000    7.00000   21.00000   12.00000   13.00000    4.00000   19.00000   13.00000    3.00000   16.00000    0.00000  237.00000   20.00000   21.00000    1.00000    0.00000   -9999.25   -9999.25   -9999.25   -9999.25   -9999.25   -9999.25   -9999.25   -9999.25   -9999.25
 5688.00000    0.38300    0.00000    0.80120    4.23050    0.00000    1.45580    0.36840   24.20650    0.08340    0.01290    1.70390   41.00000   31.00000    0.00000   72.00000   27.00000   19.00000    7.00000   64.00000    3.00000    4.00000   37.00000    0.00000  328.00000   20.00000   51.00000    4.00000    0.00000   -9999.25   -9999.25   -9999.25   -9999.25   -9999.25   -9999.25   -9999.25   -9999.25   -9999.25
 5688.33300    0.10850    0.74910    0.94070    3.16220    0.12290    1.54580    0.25280   32.74200    0.03570    0.01370    1.10280   52.00000   21.00000    3.00000   28.00000   17.00000   23.00000    8.00000   14.00000   13.00000    5.00000   20.00000   10.00000 2414.00000    0.00000    0.00000    7.00000    0.00000   -9999.25   -9999.25   -9999.25   -9999.25   -9999.25   -9999.25   -9999.25   -9999.25   -9999.25
 5688.66700    0.11000    0.00000    0.48460    2.83750    0.08230    1.07700    0.20290   33.35090    0.03410    0.01350    1.21720   52.00000   17.00000    3.00000   28.00000   22.00000   18.00000    8.00000   28.00000   16.00000    4.00000   21.00000    5.00000  992.00000    5.00000    8.00000    3.00000    0.00000    2.10000    5.70000    5.60000   60.20000    6.60000    4.70000    4.70000    6.80000    3.50000
