~Version ---------------------------------------------------
VERS.   1.2 : CWLS LOG ASCII STANDARD - VERSION 1.2
WRAP.    NO : One line per depth step
DLM . SPACE : Column Data Section Delimiter
~Well ------------------------------------------------------
STRT.ft      5651.333 : START DEPTH
STOP.ft      5849.667 : STOP DEPTH
STEP.ft             1 : STEP
NULL.        -9999.25 : NULL VALUE
COMP.         COMPANY : 
WELL.            WELL : 
FLD .           FIELD : 
LOC .        LOCATION : 
PROV.        PROVINCE : 
CNTY.          COUNTY : 
STAT.           STATE : 
CTRY.         COUNTRY : 
SRVC. SERVICE COMPANY : 
DATE.            DATE : 2020-08-25 21:44:26.661423
UWI .  UNIQUE WELL ID : 
API .      API NUMBER : 
~Curve Information -----------------------------------------
Depth (ft).ft      : Depth in ft
%Na       .wt_pct  : XRF Sodium
%Mg       .wt_pct  : XRF Magnesium
%Al       .wt_pct  : XRF Aluminum
%Si       .wt_pct  : XRF Silicon
%P        .wt_pct  : XRF Phosphorus
%S        .wt_pct  : XRF Sulfur
%K        .wt_pct  : XRF Potassium
%Ca       .wt_pct  : XRF Calcium
%Ti       .wt_pct  : XRF Titanium
%Mn       .wt_pct  : XRF Manganese
%Fe       .wt_pct  : XRF Iron
V         .ppm     : XRF Vanadium
Cr        .ppm     : XRF Chromium
Co        .ppm     : XRF Cobalt
Ni        .ppm     : XRF Nickel
Cu        .ppm     : XRF Copper
Zn        .ppm     : XRF Zinc
Ga        .ppm     : XRF Gallium
As        .ppm     : XRF Arsenic
Pb        .ppm     : XRF Lead
Th        .ppm     : XRF Thorium
Rb        .ppm     : XRF Ribidium
U         .ppm     : XRF Uranium
Sr        .ppm     : XRF Strontium
Y         .ppm     : XRF Yttrium
Zr        .ppm     : XRF Zirconium
Nb        .ppm     : XRF Niobium
Mo        .ppm     : XRF Molybdenum
Quartz    .wt_pct  : XRD Quartz
Dolomite  .wt_pct  : XRD Dolomite
Illite    .wt_pct  : XRD Illite
Calcite   .wt_pct  : XRD Calcite
Gypsum    .wt_pct  : XRD Gypsum
Microcline.wt_pct  : XRD Microcline
Albite    .wt_pct  : XRD Albite
Pyrite    .wt_pct  : XRD Pyrite
Kaolinite .wt_pct  : XRD Kaolinite
~Params ----------------------------------------------------
~Other -----------------------------------------------------
~ASCII -----------------------------------------------------
# ...
 5689.00000    0.13410    0.76330    0.16120    2.15690    0.01030    1.12120    0.13650   35.81320    0.01980    0.01310    1.10280   50.00000   16.00000    6.00000   17.00000   17.00000   12.00000    3.00000   15.00000   11.00000    3.00000   18.00000    4.00000  319.00000   17.00000   17.00000    2.00000    0.00000   -9999.25   -9999.25   -9999.25   -9999.25   -9999.25   -9999.25   -9999.25   -9999.25   -9999.25
 5689.33300    0.17250    0.58830    0.24400    2.41610    0.00000    0.32700    0.15920   35.79600    0.01960    0.01370    0.84830   41.00000    9.00000    6.00000    8.00000   14.00000    4.00000    1.00000    5.00000    7.00000    3.00000   17.00000    0.00000  247.00000   18.00000   18.00000    0.00000    0.00000   -9999.25   -9999.25   -9999.25   -9999.25   -9999.25   -9999.25   -9999.25   -9999.25   -9999.25
 5689.66700    0.15680    0.53420    0.08000    2.14530    0.00000    0.34410    0.11840   35.67170    0.01920    0.01340    0.93860   33.00000    9.00000    7.00000   11.00000   14.00000    6.00000    5.00000    1.00000    6.00000    3.00000   12.00000    0.00000  225.00000   14.00000   19.00000    1.00000    0.00000   -9999.25   -9999.25   -9999.25   -9999.25   -9999.25   -9999.25   -9999.25   -9999.25   -9999.25
 5692.33300    0.20700    0.92420    0.19680    2.23520    0.00000    0.36590    0.14170   36.14240    0.01740    0.01320    0.93110   45.00000   13.00000    5.00000   15.00000   14.00000    7.00000    3.00000    9.00000    9.00000    3.00000   12.00000    0.00000  204.00000   21.00000   22.00000    2.00000    0.00000    1.70000    6.80000    5.50000   59.30000    6.00000    4.70000    6.70000    4.90000    4.50000
 5692.66700    0.14800    0.00000    0.10650    2.33030    0.00000    0.53890    0.13060   33.68110    0.01920    0.01360    0.82560   33.00000    9.00000    7.00000   15.00000   14.00000    6.00000    4.00000    7.00000    7.00000    3.00000   11.00000    5.00000  217.00000   14.00000   27.00000    1.00000    0.00000   -9999.25   -9999.25   -9999.25   -9999.25   -9999.25   -9999.25   -9999.25   -9999.25   -9999.25
 5693.00000    0.13610    1.00290    0.15660    2.26700    0.01740    0.71320    0.17190   36.37120    0.02020    0.01350    1.04980   63.00000   10.00000    6.00000   15.00000   15.00000    8.00000    3.00000   15.00000   11.00000    3.00000   17.00000    0.00000  239.00000   22.00000   26.00000    2.00000    0.00000   -9999.25   -9999.25   -9999.25   -9999.25   -9999.25   -9999.25   -9999.25   -9999.25   -9999.25
 5693.33300    0.15170    1.90020    0.72160    2.97940    0.00740    1.98600    0.19350   33.98960    0.03610    0.01270    1.54310   65.00000   17.00000    4.00000   43.00000   18.00000   19.00000    8.00000   37.00000   12.00000    3.00000   17.00000    0.00000  255.00000   22.00000   23.00000    1.00000    0.00000   -9999.25   -9999.25   -9999.25   -9999.25   -9999.25   -9999.25   -9999.25   -9999.25   -9999.25
 5693.66700    0.12620    1.02500    0.52480    2.84130    0.03940    1.76610    0.20320   34.18870    0.02700    0.01310    1.29310   60.00000   11.00000    5.00000   17.00000   17.00000   16.00000    4.00000   18.00000   13.00000    3.00000   14.00000    0.00000  200.00000   14.00000   26.00000    2.00000    0.00000    2.60000    4.90000    4.80000   64.70000    7.60000    3.70000    3.90000    4.00000    3.80000
 5694.00000    0.26290    0.71780    0.41110    2.75020    0.00000    0.78000    0.19210   34.99870    0.02790    0.01330    1.05910   45.00000   11.00000    6.00000   17.00000   17.00000   14.00000    5.00000   21.00000   16.00000    3.00000   17.00000    0.00000  210.00000   17.00000   28.00000    0.00000    0.00000   -9999.25   -9999.25   -9999.25   -9999.25   -9999.25   -9999.25   -9999.25   -9999.25   -9999.25
 5694.33300    0.15940    0.05400    0.60900    2.93400    0.00000    0.27330    0.22360   34.70240    0.04140    0.01360    0.91540   42.00000   16.00000    6.00000   13.00000    9.00000    6.00000    4.00000    4.00000    7.00000    3.00000   13.00000    0.00000  208.00000   19.00000   24.00000    1.00000    0.00000   -9999.25   -9999.25   -9999.25   -9999.25   -9999.25   -9999.25   -9999.25   -9999.25   -9999.25
 5694.66700    0.10060    0.26270    0.38060    3.55680    0.00000    0.36720    0.24850   34.87850    0.03360    0.01380    0.81930   45.00000   15.00000    6.00000   11.00000   16.00000    5.00000    4.00000    9.00000    9.00000    3.00000   19.00000    4.00000  177.00000   22.00000   35.00000    1.00000    4.00000   -9999.25   -9999.25   -9999.25   -9999.25   -9999.25   -9999.25   -9999.25   -9999.25   -9999.25
 5695.33300    0.11110    0.68110    0.29710    2.53290    0.00000    0.32870    0.16820   36.98010    0.03500    0.01340    0.96140   36.00000    9.00000    6.00000    8.00000   12.00000    3.00000    3.00000    6.00000    9.00000    2.00000   15.00000    0.00000  208.00000   23.00000   23.00000    1.00000    3.00000   -9999.25   -9999.25   -9999.25   -9999.25   -9999.25   -9999.25   -9999.25   -9999.25   -9999.25
 5695.66700    0.16710    0.39880    0.78730    3.36870    0.00000    0.71630    0.27800   34.04100    0.03690    0.01310    1.09190   51.00000   19.00000    4.00000   12.00000   13.00000   14.00000    7.00000   11.00000   11.00000    4.00000   24.00000    0.00000  191.00000   23.00000   38.00000    1.00000    0.00000   -9999.25   -9999.25   -9999.25   -9999.25   -9999.25   -9999.25   -9999.25   -9999.25   -9999.25
 5696.00000    0.24320    0.00000    0.49650    3.23440    0.00000    0.43270    0.20700   32.52890    0.03060    0.01390    0.93620   37.00000   17.00000    6.00000    7.00000   11.00000    9.00000    5.00000    4.00000    8.00000    3.00000   19.00000    0.00000  174.00000   19.00000   44.00000    2.00000    0.00000    5.60000    4.20000    4.10000   63.10000    7.20000    4.30000    4.40000    4.50000    2.60000
 5696.33300    0.21960    0.55420    0.18300    2.20650    0.00000    0.19440    0.13170   36.73330    0.01330    0.01370    0.86700   41.00000   10.00000    6.00000   12.00000   12.00000   12.00000    5.00000    0.00000    7.00000    3.00000   15.00000    0.00000  243.00000   24.00000   26.00000    3.00000    0.00000   -9999.25   -9999.25   -9999.25   -9999.25   -9999.25   -9999.25   -9999.25   -9999.25   -9999.25
 5696.66700    0.14010    0.66590    0.35720    2.70170    0.00000    0.47980    0.16010   35.91630    0.02830    0.01350    0.91300   36.00000   16.00000    6.00000   17.00000   12.00000   10.00000    4.00000    7.00000   10.00000    3.00000   18.00000    0.00000  218.00000   21.00000   26.00000    1.00000    0.00000   -9999.25   -9999.25   -9999.25   -9999.25   -9999.25   -9999.25   -9999.25   -9999.25   -9999.25
 5697.00000    0.13760    1.22580    0.24250    2.44450    0.00900    1.36600    0.14360   35.35290    0.02080    0.01290    1.34640   53.00000    9.00000    5.00000   25.00000   19.00000   16.00000    8.00000   34.00000   22.00000    3.00000   16.00000    0.00000  207.00000   23.00000   20.00000    2.00000    0.00000   -9999.25   -9999.25   -9999.25   -9999.25   -9999.25   -9999.25   -9999.25   -9999.25   -9999.25
 5697.33300    0.31020    0.00000    0.27530    3.55550    0.00000    0.21680    0.21970   31.48560    0.03330    0.01400    0.81440   39.00000   10.00000    7.00000   12.00000   10.00000    7.00000    5.00000    1.00000    5.00000    3.00000   20.00000    4.00000  185.00000   21.00000   63.00000    2.00000    0.00000    2.50000    3.30000    3.00000   68.90000    6.20000    5.40000    4.10000    4.20000    2.30000
 5697.66700    0.24840    0.55640    0.47940    3.39450    0.00000    0.41700    0.21630   34.69890    0.02790    0.01350    0.88800   43.00000   14.00000    7.00000   17.00000   16.00000    5.00000    3.00000    9.00000    9.00000    3.00000   14.00000    0.00000  179.00000   21.00000   42.00000    2.00000    3.00000   -9999.25   -9999.25   -9999.25   -9999.25   -9999.25   -9999.25   -9999.25   -9999.25   -9999.25
 5698.33300    0.18380    0.00000    1.11920    5.06900    0.00000    0.39450    0.38160   31.80780    0.06000    0.01430    0.90330   29.00000   27.00000    6.00000   16.00000   12.00000   10.00000    4.00000    4.00000    8.00000    3.00000   20.00000    3.00000  203.00000   24.00000   57.00000    4.00000    4.00000   -9999.25   -9999.25   -9999.25   -9999.25   -9999.25   -9999.25   -9999.25   -9999.25   -9999.25
