~Version ---------------------------------------------------
VERS.   1.2 : CWLS LOG ASCII STANDARD - VERSION 1.2
WRAP.    NO : One line per depth step
DLM . SPACE : Column Data Section Delimiter
~Well ------------------------------------------------------
STRT.ft      5651.333 : START DEPTH
STOP.ft      5849.667 : STOP DEPTH
STEP.ft             1 : STEP
NULL.        -9999.25 : NULL VALUE
COMP.         COMPANY : 
WELL.            WELL : 
FLD .           FIELD : 
LOC .        LOCATION : 
PROV.        PROVINCE : 
CNTY.          COUNTY : 
STAT.           STATE : 
CTRY.         COUNTRY : 
SRVC. SERVICE COMPANY : 
DATE.            DATE : 2020-08-25 21:44:26.661423
UWI .  UNIQUE WELL ID : 
API .      API NUMBER : 
~Curve Information -----------------------------------------
Depth (ft).ft      : Depth in ft
%Na       .wt_pct  : XRF Sodium
%Mg       .wt_pct  : XRF Magnesium
%Al       .wt_pct  : XRF Aluminum
%Si       .wt_pct  : XRF Silicon
%P        .wt_pct  : XRF Phosphorus
%S        .wt_pct  : XRF Sulfur
%K        .wt_pct  : XRF Potassium
%Ca       .wt_pct  : XRF Calcium
%Ti       .wt_pct  : XRF Titanium
%Mn       .wt_pct  : XRF Manganese
%Fe       .wt_pct  : XRF Iron
V         .ppm     : XRF Vanadium
Cr        .ppm     : XRF Chromium
Co        .ppm     : XRF Cobalt
Ni        .ppm     : XRF Nickel
Cu        .ppm     : XRF Copper
Zn        .ppm     : XRF Zinc
Ga        .ppm     : XRF Gallium
As        .ppm     : XRF Arsenic
Pb        .ppm     : XRF Lead
Th        .ppm     : XRF Thorium
Rb        .ppm     : XRF Ribidium
U         .ppm     : XRF Uranium
Sr        .ppm     : XRF Strontium
Y         .ppm     : XRF Yttrium
Zr        .ppm     : XRF Zirconium
Nb        .ppm     : XRF Niobium
Mo        .ppm     : XRF Molybdenum
Quartz    .wt_pct  : XRD Quartz
Dolomite  .wt_pct  : XRD Dolomite
Illite    .wt_pct  : XRD Illite
Calcite   .wt_pct  : XRD Calcite
Gypsum    .wt_pct  : XRD Gypsum
Microcline.wt_pct  : XRD Microcline
Albite    .wt_pct  : XRD Albite
Pyrite    .wt_pct  : XRD Pyrite
Kaolinite .wt_pct  : XRD Kaolinite
~Params ----------------------------------------------------
~Other -----------------------------------------------------
~ASCII -----------------------------------------------------
# ...
 5734.00000    0.17770    0.50260    0.11440    2.06710    0.00000    0.40840    0.11500   36.09770    0.01900    0.01380    0.81530   43.00000    5.00000    6.00000   10.00000   11.00000   13.00000    6.00000    4.00000    9.00000    3.00000   12.00000    0.00000  356.00000    9.00000   13.00000    1.00000    0.00000    1.00000    6.70000    4.10000   64.10000    5.20000    4.40000    4.40000    6.50000    3.80000
 5734.33300    0.23840    1.29810    0.10350    2.00960    0.00000    0.42900    0.12050   36.42520    0.01670    0.01390    0.77010   40.00000   15.00000    6.00000   15.00000   14.00000    9.00000    5.00000    5.00000   10.00000    3.00000   11.00000    0.00000  344.00000   11.00000    9.00000    0.00000    0.00000   -9999.25   -9999.25   -9999.25   -9999.25   -9999.25   -9999.25   -9999.25   -9999.25   -9999.25
 5734.66700    0.20830    0.93990    0.09350    1.90440    0.00000    0.33110    0.09610   36.83910    0.01510    0.01390    0.75760   36.00000   15.00000    6.00000   19.00000   15.00000   14.00000    5.00000    7.00000   10.00000    3.00000    9.00000    5.00000  342.00000    4.00000   14.00000    2.00000    0.00000   -9999.25   -9999.25   -9999.25   -9999.25   -9999.25   -9999.25   -9999.25   -9999.25   -9999.25
 5735.00000    0.18810    0.14420    0.03490    1.89840    0.00000    0.22380    0.09890   36.13240    0.01200    0.01360    0.78160   34.00000    7.00000    8.00000   13.00000   14.00000    7.00000    4.00000    8.00000    9.00000    2.00000    6.00000    0.00000  329.00000    6.00000   12.00000    1.00000    0.00000   -9999.25   -9999.25   -9999.25   -9999.25   -9999.25   -9999.25   -9999.25   -9999.25   -9999.25
 5735.33300    0.19060    0.42640    0.03440    1.89780    0.00000    0.29570    0.09440   36.02060    0.01360    0.01360    0.81330   42.00000    9.00000    8.00000   12.00000   11.00000    6.00000    4.00000    9.00000    9.00000    3.00000   10.00000    0.00000  347.00000   10.00000   12.00000    1.00000    0.00000   -9999.25   -9999.25   -9999.25   -9999.25   -9999.25   -9999.25   -9999.25   -9999.25   -9999.25
 5735.66700    0.23840    0.82900    0.05420    1.89630    0.00000    0.23860    0.10190   36.20860    0.01540    0.01360    0.81960   40.00000    8.00000    7.00000    9.00000   15.00000    5.00000    2.00000   12.00000    9.00000    3.00000   12.00000    0.00000  352.00000   11.00000   14.00000    1.00000    1.00000    1.90000    5.90000    5.20000   62.10000    6.00000    5.40000    4.80000    5.10000    3.70000
 5736.00000    0.18620    0.92240    0.07620    2.09710    0.00000    0.26780    0.13970   36.18250    0.01790    0.01360    0.83890   36.00000    9.00000    7.00000   19.00000   13.00000    9.00000    4.00000    8.00000    8.00000    3.00000   12.00000    3.00000  345.00000    7.00000   14.00000    2.00000    4.00000   -9999.25   -9999.25   -9999.25   -9999.25   -9999.25   -9999.25   -9999.25   -9999.25   -9999.25
 5736.33300    0.13360    0.92770    0.04640    2.05830    0.00000    0.26340    0.12710   36.37810    0.01590    0.01350    0.85190   43.00000   11.00000    7.00000   15.00000   15.00000    0.00000    3.00000    5.00000    6.00000    3.00000   12.00000    9.00000  315.00000   13.00000   14.00000    0.00000    0.00000   -9999.25   -9999.25   -9999.25   -9999.25   -9999.25   -9999.25   -9999.25   -9999.25   -9999.25
 5736.66700    0.22010    0.78050    0.25100    2.40150    0.00000    0.24820    0.15650   35.66490    0.01760    0.01370    0.82540   40.00000    9.00000    7.00000   12.00000   14.00000   11.00000    5.00000    9.00000   10.00000    3.00000   14.00000    0.00000  323.00000   11.00000   15.00000    2.00000    0.00000   -9999.25   -9999.25   -9999.25   -9999.25   -9999.25   -9999.25   -9999.25   -9999.25   -9999.25
 5737.00000    0.20660    1.04510    0.15750    2.28070    0.00000    0.18950    0.14910   34.79980    0.02010    0.01350    0.83890   41.00000    8.00000    8.00000   16.00000   18.00000   11.00000    3.00000    8.00000    8.00000    3.00000   15.00000    4.00000  321.00000    7.00000   15.00000    2.00000    0.00000   -9999.25   -9999.25   -9999.25   -9999.25   -9999.25   -9999.25   -9999.25   -9999.25   -9999.25
 5737.33300    0.20960    1.59530    0.11270    2.26410    0.00000    0.19640    0.16430   35.14160    0.01810    0.01370    0.83980   48.00000    9.00000    8.00000   13.00000   16.00000    1.00000    4.00000    7.00000    8.00000    2.00000    8.00000    0.00000  295.00000   11.00000   15.00000    2.00000    2.00000    2.60000    7.10000    2.90000   62.90000    7.10000    4.20000    6.00000    4.40000    2.70000
 5737.66700    0.23660    0.90650    0.02190    1.88740    0.00000    0.23760    0.09830   36.79140    0.01330    0.01400    0.75510   43.00000    6.00000    6.00000   11.00000   14.00000    4.00000    4.00000    0.00000    6.00000    3.00000   16.00000    0.00000  301.00000    9.00000   15.00000    1.00000    3.00000   -9999.25   -9999.25   -9999.25   -9999.25   -9999.25   -9999.25   -9999.25   -9999.25   -9999.25
 5738.00000    0.15180    0.31950    0.03880    1.82100    0.00000    0.20560    0.07550   36.61780    0.00930    0.01350    0.75480   38.00000    7.00000    8.00000   12.00000   17.00000    2.00000    3.00000    6.00000    9.00000    2.00000    7.00000    0.00000  311.00000   11.00000    8.00000    0.00000    0.00000   -9999.25   -9999.25   -9999.25   -9999.25   -9999.25   -9999.25   -9999.25   -9999.25   -9999.25
 5739.33300    0.15980    0.99050    0.17840    2.32520    0.00000    0.23200    0.16280   36.54850    0.02120    0.01360    0.77510   29.00000   11.00000    7.00000   17.00000   18.00000    8.00000    5.00000    5.00000    8.00000    3.00000   15.00000    0.00000  334.00000    8.00000   13.00000    1.00000    0.00000   -9999.25   -9999.25   -9999.25   -9999.25   -9999.25   -9999.25   -9999.25   -9999.25   -9999.25
 5739.66700    0.15740    0.66680    0.25170    2.76870    0.00000    0.26120    0.19630   35.55590    0.02550    0.01380    0.77750   41.00000   16.00000    8.00000    8.00000   17.00000    3.00000    3.00000    7.00000    9.00000    3.00000   17.00000    0.00000  357.00000    7.00000   17.00000    2.00000    0.00000   -9999.25   -9999.25   -9999.25   -9999.25   -9999.25   -9999.25   -9999.25   -9999.25   -9999.25
 5740.00000    0.17860    0.39510    0.22900    2.62430    0.00000    0.22780    0.18970   34.37720    0.02180    0.01380    0.74860   31.00000   14.00000    7.00000   12.00000   16.00000    0.00000    3.00000    4.00000    8.00000    2.00000   13.00000    0.00000  291.00000    6.00000    9.00000    0.00000    0.00000    2.00000    6.60000    4.10000   64.00000    4.90000    3.80000    3.30000    6.50000    4.90000
 5740.33300    0.16600    0.43860    0.15090    2.30570    0.00000    0.23670    0.13620   36.17330    0.01260    0.01370    0.77800   25.00000   10.00000    7.00000   12.00000   18.00000   11.00000    5.00000    3.00000    7.00000    3.00000   14.00000    2.00000  303.00000   12.00000   15.00000    0.00000    1.00000   -9999.25   -9999.25   -9999.25   -9999.25   -9999.25   -9999.25   -9999.25   -9999.25   -9999.25
 5740.66700    0.09810    0.87130    0.13770    2.15700    0.00000    0.19480    0.12090   36.39440    0.01150    0.01350    0.71610   39.00000    9.00000    8.00000    4.00000   15.00000    8.00000    5.00000    5.00000    9.00000    3.00000   14.00000    0.00000  285.00000    6.00000   14.00000    2.00000    0.00000   -9999.25   -9999.25   -9999.25   -9999.25   -9999.25   -9999.25   -9999.25   -9999.25   -9999.25
 5741.00000    0.16630    0.67460    0.06170    1.95670    0.00000    0.15930    0.09910   37.46640    0.01300    0.01370    0.74640   60.00000    7.00000    7.00000   12.00000   14.00000    7.00000    4.00000    0.00000    7.00000    3.00000   13.00000    0.00000  290.00000   11.00000   15.00000    2.00000    0.00000   -9999.25   -9999.25   -9999.25   -9999.25   -9999.25   -9999.25   -9999.25   -9999.25   -9999.25
 5741.33300    0.15510    0.27850    0.13940    2.13160    0.00000    0.17480    0.12070   36.29850    0.01470    0.01370    0.71430   35.00000    9.00000    7.00000   13.00000   15.00000   11.00000    3.00000    6.00000    7.00000    3.00000   20.00000    0.00000  305.00000   11.00000   14.00000    0.00000    0.00000   -9999.25   -9999.25   -9999.25   -9999.25   -9999.25   -9999.25   -9999.25   -9999.25   -9999.25
