~Version ---------------------------------------------------
VERS.   1.2 : CWLS LOG ASCII STANDARD - VERSION 1.2
WRAP.    NO : One line per depth step
DLM . SPACE : Column Data Section Delimiter
~Well ------------------------------------------------------
STRT.ft      5651.333 : START DEPTH
STOP.ft      5849.667 : STOP DEPTH
STEP.ft             1 : STEP
NULL.        -9999.25 : NULL VALUE
COMP.         COMPANY : 
WELL.            WELL : 
FLD .           FIELD : 
LOC .        LOCATION : 
PROV.        PROVINCE : 
CNTY.          COUNTY : 
STAT.           STATE : 
CTRY.         COUNTRY : 
SRVC. SERVICE COMPANY : 
DATE.            DATE : 2020-08-25 21:44:26.661423
UWI .  UNIQUE WELL ID : 
API .      API NUMBER : 
~Curve Information -----------------------------------------
Depth (ft).ft      : Depth in ft
%Na       .wt_pct  : XRF Sodium
%Mg       .wt_pct  : XRF Magnesium
%Al       .wt_pct  : XRF Aluminum
%Si       .wt_pct  : XRF Silicon
%P        .wt_pct  : XRF Phosphorus
%S        .wt_pct  : XRF Sulfur
%K        .wt_pct  : XRF Potassium
%Ca       .wt_pct  : XRF Calcium
%Ti       .wt_pct  : XRF Titanium
%Mn       .wt_pct  : XRF Manganese
%Fe       .wt_pct  : XRF Iron
V         .ppm     : XRF Vanadium
Cr        .ppm     : XRF Chromium
Co        .ppm     : XRF Cobalt
Ni        .ppm     : XRF Nickel
Cu        .ppm     : XRF Copper
Zn        .ppm     : XRF Zinc
Ga        .ppm     : XRF Gallium
As        .ppm     : XRF Arsenic
Pb        .ppm     : XRF Lead
Th        .ppm     : XRF Thorium
Rb        .ppm     : XRF Ribidium
U         .ppm     : XRF Uranium
Sr        .ppm     : XRF Strontium
Y         .ppm     : XRF Yttrium
Zr        .ppm     : XRF Zirconium
Nb        .ppm     : XRF Niobium
Mo        .ppm     : XRF Molybdenum
Quartz    .wt_pct  : XRD Quartz
Dolomite  .wt_pct  : XRD Dolomite
Illite    .wt_pct  : XRD Illite
Calcite   .wt_pct  : XRD Calcite
Gypsum    .wt_pct  : XRD Gypsum
Microcline.wt_pct  : XRD Microcline
Albite    .wt_pct  : XRD Albite
Pyrite    .wt_pct  : XRD Pyrite
Kaolinite .wt_pct  : XRD Kaolinite
~Params ----------------------------------------------------
~Other -----------------------------------------------------
~ASCII -----------------------------------------------------
# ...
 5813.66700    0.28760    0.24920    2.17720   10.30930    0.29440    1.34500    1.15910   23.88690    0.10460    0.01520    1.38540   40.00000   62.00000    4.00000   43.00000   23.00000  175.00000    7.00000    0.00000    8.00000    4.00000   41.00000    6.00000  333.00000   26.00000   70.00000    5.00000    8.00000   -9999.25   -9999.25   -9999.25   -9999.25   -9999.25   -9999.25   -9999.25   -9999.25   -9999.25
 5814.00000    0.31120    0.11710    1.82560    7.90220    0.12420    0.82900    0.85740   28.54620    0.07360    0.01460    1.10360   45.00000   44.00000    6.00000   17.00000   15.00000   24.00000    4.00000    1.00000    8.00000    3.00000   30.00000   13.00000  300.00000   17.00000   44.00000    3.00000    8.00000    6.00000    4.90000    4.20000   65.20000    5.70000    5.00000    3.40000    4.00000    1.70000
 5814.33300    0.31470    1.29210    2.19690   10.35290    0.07770    0.83090    1.10610   22.13430    0.12920    0.01500    1.64380   48.00000   59.00000    5.00000   34.00000   11.00000   44.00000    8.00000    4.00000    9.00000    5.00000   56.00000    6.00000  297.00000   23.00000   96.00000    7.00000    5.00000   10.10000   13.30000    4.10000   49.70000    7.40000    5.80000    3.40000    3.60000    2.50000
 5814.33300    0.30340    0.00000    0.58500    3.82040    0.00000    0.38870    0.37660   33.80750    0.02830    0.01360    0.89480   39.00000   20.00000    7.00000   21.00000   13.00000   15.00000    5.00000    2.00000    8.00000    3.00000   22.00000    7.00000  281.00000   13.00000   36.00000    2.00000    0.00000   -9999.25   -9999.25   -9999.25   -9999.25   -9999.25   -9999.25   -9999.25   -9999.25   -9999.25
 5814.66700    0.28970    0.66670    2.28080   11.39930    0.23690    1.15370    1.11620   22.21330    0.11410    0.01550    1.41950   62.00000   57.00000    4.00000   42.00000   19.00000   78.00000    5.00000    5.00000    8.00000    5.00000   45.00000    0.00000  299.00000   19.00000   83.00000    6.00000    4.00000   -9999.25   -9999.25   -9999.25   -9999.25   -9999.25   -9999.25   -9999.25   -9999.25   -9999.25
 5814.66700    0.35990    1.80450    3.57630   13.62270    0.11120    1.17000    1.50120   19.79550    0.17340    0.01530    1.84080   36.00000   75.00000    6.00000   46.00000   17.00000   34.00000   11.00000    5.00000   10.00000    7.00000   78.00000    0.00000  286.00000   24.00000  130.00000    6.00000    5.00000   -9999.25   -9999.25   -9999.25   -9999.25   -9999.25   -9999.25   -9999.25   -9999.25   -9999.25
 5815.00000    0.33830    1.62690    5.42340   18.00950    0.24010    1.68550    2.12600   14.70190    0.25620    0.01660    2.34960   62.00000   84.00000    5.00000   43.00000   17.00000   50.00000   13.00000   10.00000   13.00000    8.00000  103.00000    5.00000  279.00000   27.00000  161.00000    8.00000   16.00000   -9999.25   -9999.25   -9999.25   -9999.25   -9999.25   -9999.25   -9999.25   -9999.25   -9999.25
 5815.00000    0.26040    1.92050    2.39050    9.87330    0.37670    1.61030    1.51370   22.47810    0.12390    0.01520    1.55470   66.00000   68.00000    2.00000   64.00000   25.00000  141.00000    8.00000    8.00000   11.00000    6.00000   63.00000    0.00000  346.00000   21.00000   63.00000    5.00000    6.00000   -9999.25   -9999.25   -9999.25   -9999.25   -9999.25   -9999.25   -9999.25   -9999.25   -9999.25
 5815.33300    0.33750    2.71690    2.67880   10.65080    0.54120    1.31170    1.61380   22.55330    0.14040    0.01530    1.61710   64.00000   70.00000    3.00000   67.00000   28.00000  129.00000    9.00000    3.00000    9.00000    6.00000   62.00000    2.00000  355.00000   28.00000   65.00000    6.00000    9.00000   -9999.25   -9999.25   -9999.25   -9999.25   -9999.25   -9999.25   -9999.25   -9999.25   -9999.25
 5815.66700    0.33270    1.93540    2.59360   11.31680    0.29580    1.20640    1.55580   21.91820    0.12460    0.01560    1.69450   73.00000   70.00000    2.00000   58.00000   23.00000  172.00000    7.00000    6.00000    9.00000    5.00000   52.00000   11.00000  325.00000   28.00000   79.00000    6.00000    8.00000    8.00000   13.50000    6.10000   50.80000    7.00000    4.90000    4.40000    3.60000    1.70000
 5816.00000    0.31730    2.40150    2.87040   11.37730    0.29930    1.23670    1.67300   21.88950    0.13330    0.01590    1.70920   77.00000   77.00000    2.00000   56.00000   21.00000  152.00000    7.00000    7.00000   10.00000    6.00000   67.00000    5.00000  330.00000   26.00000   75.00000    4.00000   13.00000   -9999.25   -9999.25   -9999.25   -9999.25   -9999.25   -9999.25   -9999.25   -9999.25   -9999.25
 5816.33300    0.29720    1.44960    1.95120    9.38430    0.17340    1.41000    1.31760   20.96530    0.10770    0.01540    1.63200   73.00000   66.00000    6.00000   55.00000   28.00000  311.00000    8.00000    5.00000    8.00000    5.00000   53.00000    7.00000  297.00000   23.00000   59.00000    5.00000    4.00000   -9999.25   -9999.25   -9999.25   -9999.25   -9999.25   -9999.25   -9999.25   -9999.25   -9999.25
 5816.66700    0.32440    1.94610    2.51130   10.52150    0.32570    1.07470    1.49910   23.20360    0.12380    0.01520    1.63840   62.00000   68.00000    5.00000   54.00000   24.00000   90.00000    8.00000    4.00000    9.00000    5.00000   57.00000   12.00000  329.00000   24.00000   60.00000    5.00000    9.00000   -9999.25   -9999.25   -9999.25   -9999.25   -9999.25   -9999.25   -9999.25   -9999.25   -9999.25
 5817.00000    0.37030    1.71140    2.61140   13.17980    0.27220    1.23140    1.43720   19.41770    0.12380    0.01630    1.69220   59.00000   81.00000    3.00000   55.00000   20.00000  163.00000    7.00000    4.00000    8.00000    4.00000   43.00000    8.00000  323.00000   23.00000   82.00000    5.00000   10.00000    9.30000   18.00000    4.00000   47.30000    5.40000    5.60000    1.60000    4.80000    4.00000
 5817.33300    0.38560    2.62240    3.09150   13.36200    0.26620    1.22640    1.50930   18.12610    0.15650    0.01630    2.13660   72.00000   61.00000    6.00000   47.00000   16.00000   62.00000    8.00000    1.00000    9.00000    5.00000   55.00000   15.00000  261.00000   23.00000   99.00000    5.00000   10.00000   -9999.25   -9999.25   -9999.25   -9999.25   -9999.25   -9999.25   -9999.25   -9999.25   -9999.25
 5817.66700    0.33410    2.05920    3.55810   14.09270    0.16560    1.40050    1.66570   16.27970    0.15220    0.01620    2.12640   63.00000   72.00000    7.00000   56.00000   25.00000   91.00000    7.00000    6.00000    9.00000    5.00000   60.00000    0.00000  275.00000   22.00000   84.00000    7.00000    8.00000   -9999.25   -9999.25   -9999.25   -9999.25   -9999.25   -9999.25   -9999.25   -9999.25   -9999.25
 5818.00000    0.42840    1.34110    2.56730   13.83660    0.26770    1.01890    1.40050   17.30270    0.14830    0.01650    1.96420   89.00000   69.00000    9.00000   41.00000   16.00000   92.00000    7.00000    4.00000    8.00000    5.00000   58.00000    6.00000  279.00000   28.00000  103.00000    4.00000    8.00000   -9999.25   -9999.25   -9999.25   -9999.25   -9999.25   -9999.25   -9999.25   -9999.25   -9999.25
 5818.33300    0.29780    2.18130    3.79070   12.69980    0.24820    1.02120    1.85070   20.45590    0.18300    0.01560    1.89050   52.00000   69.00000    8.00000   42.00000   20.00000   47.00000    7.00000    9.00000   10.00000    6.00000   71.00000   13.00000  291.00000   26.00000   85.00000    5.00000    7.00000   -9999.25   -9999.25   -9999.25   -9999.25   -9999.25   -9999.25   -9999.25   -9999.25   -9999.25
 5818.66700    0.32020    2.36300    3.31800   11.18020    0.29090    1.36960    1.76770   22.61360    0.15870    0.01530    1.82040   49.00000   66.00000    4.00000   33.00000   20.00000   66.00000    9.00000    5.00000   10.00000    5.00000   58.00000    1.00000  270.00000   29.00000   70.00000    4.00000    1.00000    5.30000   15.10000    4.50000   54.70000    6.10000    5.30000    2.40000    3.90000    2.80000
 5819.00000    0.35550    1.69080    4.36270   13.01070    0.26590    0.87560    2.12030   19.36640    0.22250    0.01600    2.01210   35.00000   77.00000    8.00000   51.00000   17.00000   41.00000    7.00000    6.00000    9.00000    7.00000   85.00000    7.00000  288.00000   31.00000   82.00000    5.00000    7.00000   -9999.25   -9999.25   -9999.25   -9999.25   -9999.25   -9999.25   -9999.25   -9999.25   -9999.25
